<?xml version="1.0" encoding="UTF-8"?>
<settings>
<servers>
<server url="http://hnispeedtest.cmctelecom.vn/speedtest/upload.php" lat="21.0285" lon="105.8542" name="Hanoi" country="Vietnam" cc="VN" sponsor="CMC Telecom" id="6342"  url2="http://hnispeedtest.cmcti.vn/speedtest/upload.php" host="hnispeedtest.cmctelecom.vn:8080" />
<server url="http://speedtesthn.fpt.vn/speedtest/upload.php" lat="21.0285" lon="105.8542" name="Hanoi" country="Vietnam" cc="VN" sponsor="FPT Telecom" id="2552"  url2="http://speedtesthn.rad.fpt.net/speedtest/upload.php" host="speedtesthn.fpt.vn:8080" />
<server url="http://sp3.supernet.vn/speedtest/upload.php" lat="21.0285" lon="105.8542" name="Hanoi" country="Vietnam" cc="VN" sponsor="Supernet-hanoi" id="10308"  url2="http://sp4.supernet.vn/speedtest/upload.php" host="supernet-hanoi.supernet.vn:8080" />
<server url="http://st1.mobifone.vn/speedtest/upload.php" lat="21.0285" lon="105.8542" name="Hanoi" country="Vietnam" cc="VN" sponsor="MOBIFONE" id="9174"  url2="http://st2.mobifone.vn/speedtest/upload.php" host="st1.mobifone.vn:8080" />
<server url="http://speedtest1.vtn.com.vn/speedtest/upload.php" lat="21.0285" lon="105.8542" name="Hanoi" country="Vietnam" cc="VN" sponsor="VNPT-NET" id="6085"  url2="http://speedtest2.vtn.com.vn/speedtest/upload.php" host="speedtest1.vtn.com.vn:8080" />
<server url="http://vhn.vietpn.com/speedtest/upload.php" lat="21.0285" lon="105.8542" name="Ha Noi" country="Viet Nam" cc="VN" sponsor="VIETPN CO, LTD" id="11430"  host="vhn.vietpn.com:8080" />
<server url="http://speed-pv1.viettelidc.com.vn/speedtest/upload.php" lat="21.0285" lon="105.8542" name="Hanoi" country="Vietnam" cc="VN" sponsor="Viettel IDC" id="2428"  url2="http://speed-pv2.viettelidc.com.vn/speedtest/upload.php" host="speed-pv1.viettelidc.com.vn:8080" />
<server url="http://speedtest05.spt.vn/upload.php" lat="21.0285" lon="105.8542" name="Hanoi" country="Vietnam" cc="VN" sponsor="SAIGON POSTEL CORP." id="7215"  url2="http://speedtest06.spt.vn/upload.php" host="speedtest05.spt.vn:8080" />
<server url="http://118.107.88.20/speedtest/upload.php" lat="21.0285" lon="105.8542" name="Hanoi" country="Vietnam" cc="VN" sponsor="VTC DIGICOM" id="8156"  url2="http://118.107.88.20/speedtest1/upload.php" host="118.107.88.20:8080" />
<server url="http://speedtest.htc-itc.vn//speedtest/upload.php" lat="21.0285" lon="105.8542" name="Hanoi" country="Viet Nam" cc="VN" sponsor="HTC-ITC" id="11194"  host="speedtest.htc-itc.vn:8080" />
<server url="http://testspeed.vnanet.vn/upload.aspx" lat="21.0285" lon="105.8542" name="Hanoi" country="Vietnam" cc="VN" sponsor="TTXVN" id="9594"  url2="http://testspeed.vnanet.vn/upload.php" host="testspeed.vnanet.vn:8080" />
<server url="http://speedtest.netnam.vn/speedtest/upload.php" lat="21.0285" lon="105.8542" name="Hanoi" country="Vietnam" cc="VN" sponsor="NetNam Corp" id="5774"  url2="http://speedtest1.netnam.vn/speedtest/upload.php" host="speedtest.netnam.vn:8080" />
<server url="http://speedtestkv1a.viettel.vn/speedtest/upload.php" lat="21.0285" lon="105.8542" name="Hanoi" country="Vietnam" cc="VN" sponsor="Viettel Network" id="9903"  url2="http://speedtestkv1b.viettel.vn/speedtest/upload.php" host="speedtestkv1a.viettel.vn:8080" />
<server url="http://hn1.speedtest.vietnamobile.com.vn/speedtest/upload.php" lat="21.0285" lon="105.8542" name="Hanoi" country="Viet Nam" cc="VN" sponsor="Vietnamobile" id="16416"  host="hn1.speedtest.vietnamobile.com.vn:8080" />
<server url="http://speedtest5.vtn.com.vn/speedtest/upload.php" lat="16.0667" lon="108.2333" name="Da Nang" country="Vietnam" cc="VN" sponsor="VNPT-NET" id="6102"  url2="http://speedtest6.vtn.com.vn/speedtest/upload.php" host="speedtest5.vtn.com.vn:8080" />
<server url="http://speedtestkv2a.viettel.vn/speedtest/upload.aspx" lat="16.0667" lon="108.2333" name="Da Nang" country="Vietnam" cc="VN" sponsor="Viettel Network" id="10040"  url2="http://speedtestkv2b.viettel.vn/speedtest/upload.php" host="speedtestkv2a.viettel.vn:8080" />
<server url="http://vnmdngspt1.vietnamobile.com.vn/speedtest/upload.php" lat="16.0667" lon="108.2333" name="Da Nang" country="VN" cc="VN" sponsor="Vietnamobile" id="16873"  host="vnmdngspt1.vietnamobile.com.vn:8080" />
<server url="http://speedtest3.vtn.com.vn/speedtest/upload.php" lat="10.7500" lon="106.6667" name="Ho Chi Minh City" country="Vietnam" cc="VN" sponsor="VNPT-NET" id="6106"  url2="http://speedtest4.vtn.com.vn/speedtest/upload.php" host="speedtest3.vtn.com.vn:8080" />
<server url="http://speedtestkv3a.viettel.vn/speedtest/upload.php" lat="10.7500" lon="106.6667" name="Ho Chi Minh City" country="Vietnam" cc="VN" sponsor="Viettel Network" id="9994"  url2="http://speedtestkv3b.viettel.vn/speedtest/upload.php" host="speedtestkv3a.viettel.vn:8080" />
<server url="http://speed-hht1.viettelidc.com.vn/speedtest/upload.php" lat="10.7500" lon="106.6667" name="Ho Chi Minh City" country="Vietnam" cc="VN" sponsor="Viettel Networks" id="2427"  url2="http://speed-hht2.viettelidc.com.vn/speedtest/upload.php" host="speed-hht1.viettelidc.com.vn:8080" />
<server url="http://speedtest07.spt.vn/upload.php" lat="10.7500" lon="106.6667" name="Ho Chi Minh City" country="Viet Nam" cc="VN" sponsor="Saigon Postel Corporation" id="12473"  host="speedtest07.spt.vn:8080" />
<server url="http://118.107.96.3/speedtest/upload.php" lat="10.7500" lon="106.6667" name="Ho Chi Minh City" country="Vietnam" cc="VN" sponsor="VTC DIGICOM" id="8158"  url2="http://118.107.96.3/speedtest1/upload.php" host="118.107.96.3:8080" />
<server url="http://speedtest01.spt.vn/upload.php" lat="10.7500" lon="106.6667" name="Ho Chi Minh City" country="Vietnam" cc="VN" sponsor="SAIGON POSTEL CORP." id="6378"  url2="http://speedtest02.spt.vn/upload.php" host="speedtest01.spt.vn:8080" />
<server url="http://speedtest.fpt.vn/speedtest/upload.php" lat="10.7500" lon="106.6667" name="Ho Chi Minh City" country="Vietnam" cc="VN" sponsor="FPT Telecom" id="2515"  url2="http://speedtest.rad.fpt.net/speedtest/upload.php" host="speedtest.fpt.vn:8080" />
<server url="http://hcm-speedtest01.sctv.com.vn/speedtest/upload.php" lat="10.7500" lon="106.6667" name="Ho Chi Minh City" country="Vietnam" cc="VN" sponsor="SCTV Co.Ltd" id="8491"  url2="http://hcm-speedtest01.sctv.net.vn/speedtest/upload.php" host="hcm-speedtest01.sctv.com.vn:8080" />
<server url="http://speedtest4.hcmc.netnam.vn/speedtest/upload.php" lat="10.7500" lon="106.6667" name="Ho Chi Minh City" country="Vietnam" cc="VN" sponsor="NetNam" id="3381"  url2="http://speedtest5.hcmc.netnam.vn/speedtest/upload.php" host="speedtest4.hcmc.netnam.vn:8080" />
<server url="http://sp1.mobifone.vn/upload.php" lat="10.7500" lon="106.6667" name="Ho Chi Minh City" country="Vietnam" cc="VN" sponsor="MOBIFONE" id="9331"  url2="http://sp2.mobifone.vn/upload.php" host="sp1.mobifone.vn:8080" />
<server url="http://sp1.supernet.vn/speedtest/upload.php" lat="10.7500" lon="106.6667" name="Ho Chi Minh City" country="Vietnam" cc="VN" sponsor="Supernet" id="9668"  url2="http://sp2.supernet.vn/speedtest/upload.php" host="sp1.supernet.vn:8080" />
<server url="http://speedtesthcm.htc-itc.com.vn//speedtest/upload.php" lat="10.7500" lon="106.6667" name="Ho Chi Minh City" country="Viet Nam" cc="VN" sponsor="HTC-ITC" id="12635"  host="speedtesthcm.htc-itc.com.vn:8080" />
<server url="http://speedtest.vietnamhost.vn/speedtest/upload.php" lat="10.7500" lon="106.6667" name="Ho Chi Minh City" country="Viet Nam" cc="VN" sponsor="VietNamHost" id="15324"  host="speedtest.vietnamhost.vn:8080" />
<server url="http://speedtest1.dts.com.vn/speedtest/upload.php" lat="10.7500" lon="106.6667" name="Ho Chi Minh City" country="Viet Nam" cc="VN" sponsor="DTS Communication Technologies Corporation" id="11411"  host="speedtest1.dts.com.vn:8080" />
<server url="http://vnmhcmspt1.vietnamobile.com.vn/speedtest/upload.aspx" lat="10.7500" lon="106.6667" name="Ho Chi Minh" country="VN" cc="XX" sponsor="Vietnamobile" id="16749"  host="vnmhcmspt1.vietnamobile.com.vn:8080" />
<server url="http://88.84.191.230/speedtest/upload.php" lat="70.0733" lon="29.7497" name="Vadso" country="Norway" cc="NO" sponsor="Varanger KraftUtvikling AS" id="4600"  url2="http://speedmonster.varangerbynett.no/speedtest/upload.php" host="88.84.191.230:8080" />
<server url="http://speedo.eltele.no/speedtest/upload.php" lat="69.9403" lon="23.3106" name="Alta" country="Norway" cc="NO" sponsor="Eltele AS" id="3433"  host="speedo.eltele.no:8080" />
<server url="http://speedtest.nornett.net/speedtest/upload.php" lat="69.9403" lon="23.3106" name="Alta" country="Norway" cc="NO" sponsor="Nornett AS" id="4961"  url2="http://speedtest2.nornett.net/speedtest/upload.php" host="speedtest.nornett.net:8080" />
<server url="http://tos.speedtest.as2116.net/speedtest/upload.php" lat="69.6492" lon="18.9553" name="Tromsø" country="Norway" cc="NO" sponsor="Broadnet" id="11786"  host="tos.speedtest.as2116.net:8080" />
<server url="http://speedtest1.norilsk.mts.ru/speedtest/upload.php" lat="69.3298" lon="88.2236" name="Norilsk" country="Russian Federation" cc="RU" sponsor="Mobile TeleSystems OJSC" id="3867"  url2="http://speedtest2.norilsk.mts.ru/speedtest/upload.php" host="speedtest1.norilsk.mts.ru:8080" />
<server url="http://murmansk.speedtest.rt.ru/speedtest/upload.php" lat="68.9543" lon="33.1076" name="Murmansk" country="Russian Federation" cc="RU" sponsor="Rostelecom" id="3522"  url2="http://murmansk.speedtest2.rt.ru/speedtest/upload.php" host="murmansk.speedtest.rt.ru:8080" />
<server url="http://mrm1.bigspeedtest.netbynet.ru/speedtest/upload.php" lat="68.9543" lon="33.1076" name="Murmansk" country="Russian Federation" cc="RU" sponsor="Net By Net Holding LLC" id="11072"  host="mrm-speedtest-srv02.ti.ru:8080" />
<server url="http://speedtest.mmsn.ru/speedtest/upload.php" lat="68.9543" lon="33.1076" name="Murmansk" country="Russian Federation" cc="RU" sponsor="M2C" id="1521"  url2="http://pingtest.mmsn.ru/speedtest/upload.php" host="speedtest.mmsn.ru:8080" />
<server url="http://ookla.trollfjord.no/speedtest/upload.php" lat="68.5656" lon="14.9042" name="Stokmarknes" country="Norway" cc="NO" sponsor="Trollfjord Broadband AS" id="4755"  url2="http://ookla01.trollfjord.no/speedtest/upload.php" host="ookla.trollfjord.no:8080" />
<server url="http://speedtest.oltv.ru/speedtest/upload.php" lat="68.1500" lon="33.2833" name="Olenegorsk" country="Russian Federation" cc="RU" sponsor="SC Oltelecom" id="1996"  url2="http://st.oltv.ru/speedtest/upload.php" host="speedtest.oltv.ru:8080" />
<server url="http://naryan-mar.speedtest.rt.ru/speedtest/upload.php" lat="67.6333" lon="53.0500" name="Naryan-Mar" country="Russian Federation" cc="RU" sponsor="Rostelecom" id="4280"  url2="http://naryan-mar.speedtest2.rt.ru/speedtest/upload.php" host="naryan-mar.speedtest.rt.ru:8080" />
<server url="http://speedtest-ap.murm.pro/speedtest/upload.php" lat="67.5667" lon="33.4000" name="Apatity" country="Russian Federation" cc="RU" sponsor="Citylink Ltd" id="4980"  url2="http://speedtest-ap2.murm.pro/speedtest/upload.php" host="speedtest-ap.murm.pro:8080" />
<server url="http://speedtest.signal.no/speedtest/upload.php" lat="67.2833" lon="14.3833" name="Bodø" country="Norway" cc="NO" sponsor="Signal Broadband AS" id="3308"  url2="http://monster.signal.no/speedtest/upload.php" host="speedtest.signal.no:8080" />
<server url="http://boo-jern-speedtest1.altibox.net/upload.php" lat="67.2804" lon="14.4049" name="Bodø" country="Norway" cc="NO" sponsor="Altibox AS" id="14444"  host="boo-jern-speedtest1.altibox.net:8080" />
<server url="http://proftelekom.ru/speedtest/upload.php" lat="66.6572" lon="66.4183" name="Labytnangi" country="RU" cc="RU" sponsor="Proftelekom-Service" id="17562"  host="proftelekom.ru:8080" />
<server url="http://salehard.speedtest.rt.ru/speedtest/upload.php" lat="66.5333" lon="66.6000" name="Salekhard" country="Russian Federation" cc="RU" sponsor="Rostelecom" id="2601"  url2="http://salehard.speedtest2.rt.ru/speedtest/upload.php" host="salehard.speedtest.rt.ru:8080" />
<server url="http://speedtest.ytc.ru/speedtest/upload.php" lat="66.5333" lon="66.6000" name="Salekhard" country="Russian Federation" cc="RU" sponsor="Yamaltelecom" id="15323"  host="speedtest.ytc.ru:8080" />
<server url="http://sp1.sigma-ktv.ru/speedtest/upload.php" lat="66.0833" lon="76.6833" name="Novy Urengoy" country="Russian Federation" cc="RU" sponsor="JSC Sigma-KTV" id="6256"  url2="http://sp2.yamal-kontinent.ru/speedtest/upload.php" host="sp1.sigma-ktv.ru:8080" />
<server url="http://novyurengoi.speedtest.rt.ru/speedtest/upload.php" lat="66.0833" lon="76.6833" name="Novy Urengoy" country="Russian Federation" cc="RU" sponsor="Rostelecom" id="3484"  url2="http://novyurengoi.speedtest2.rt.ru/speedtest/upload.php" host="novyurengoi.speedtest.rt.ru:8080" />
<server url="http://nurg1.bigspeedtest.netbynet.ru/speedtest/upload.php" lat="66.0833" lon="76.6833" name="Novy Urengoy" country="Russian Federation" cc="RU" sponsor="Net By Net Holding LLC" id="11074"  host="nurg-speedtest-srv02.ti.ru:8080" />
<server url="http://noviy-urengoi.speedtest-uf.megafon.ru/speedtest/upload.php" lat="66.0833" lon="76.6833" name="Novy Urengoy" country="Russia" cc="RU" sponsor="MegaFon" id="17031"  host="noviy-urengoi.speedtest-uf.megafon.ru:8080" />
<server url="http://speed.smartnet.is/speedtest/upload.php" lat="66.0751" lon="-23.1212" name="Isafjordur" country="Iceland" cc="IS" sponsor="Snerpa" id="3644"  url2="http://speed2.smartnet.is/speedtest/upload.php" host="speed.smartnet.is:8080" />
<server url="http://test.usinsknet.ru/speedtest/upload.php" lat="66.0000" lon="57.5333" name="Usinsk" country="Russian Federation" cc="RU" sponsor="Swift Telecom" id="3693"  host="test.usinsknet.ru:8080" />
<server url="http://st.home-nadym.ru/speedtest/upload.php" lat="65.5333" lon="72.5167" name="Nadym" country="Russian Federation" cc="RU" sponsor="interService" id="3106"  url2="http://home-nadym.ru/speedtest/speedtest/upload.php" host="st.home-nadym.ru:8080" />
<server url="http://sp1.nadym.tv/speedtest/upload.php" lat="65.5333" lon="72.5167" name="Nadym" country="Russian Federation" cc="RU" sponsor="VKS-Internet" id="4856"  url2="http://sp2.nadym.tv/speedtest/upload.php" host="sp1.nadym.tv:8080" />
<server url="http://speedtest.netplaza.fi/speedtest/upload.php" lat="65.0167" lon="25.4667" name="Oulu" country="Finland" cc="FI" sponsor="Netplaza Oy" id="2138"  url2="http://speedtest2.netplaza.fi/speedtest/upload.php" host="speedtest.netplaza.fi:8080" />
<server url="http://ana.speedtest-dvf.megafon.ru/speedtest/upload.php" lat="64.7333" lon="177.5167" name="Anadyr" country="Russian Federation" cc="RU" sponsor="MegaFon" id="5643"  url2="http://ana.sp-dvf.megafon.ru/speedtest/upload.php" host="ana.speedtest-dvf.megafon.ru:8080" />
<server url="http://speedtest-ks.karelia.pro/speedtest/upload.php" lat="64.6833" lon="30.8167" name="Kostomuksha" country="Russian Federation" cc="RU" sponsor="CityLink Ltd" id="7515"  url2="http://speedtest-ks2.karelia.pro/speedtest/upload.php" host="speedtest-ks.karelia.pro:8080" />
<server url="http://sp1.net29.ru/upload.php" lat="64.5333" lon="40.5333" name="Arkhangels" country="Russian Federation" cc="RU" sponsor="Beeline" id="11063"  host="sp1.net29.ru:8080" />
<server url="http://arhangelsk.speedtest.rt.ru/speedtest/upload.php" lat="64.5333" lon="40.5333" name="Arkhangelsk" country="Russian Federation" cc="RU" sponsor="Rostelecom" id="2597"  url2="http://arhangelsk.speedtest2.rt.ru/speedtest/upload.php" host="arhangelsk.speedtest.rt.ru:8080" />
<server url="http://spdtest-1.kaisanet.fi/speedtest/speedtest/upload.php" lat="64.2250" lon="27.7333" name="Kajaani" country="Finland" cc="FI" sponsor="Kaisanet Oy" id="4565"  url2="http://spdtest-2.kaisanet.fi/speedtest/speedtest/upload.php" host="spdtest-1.kaisanet.fi:8080" />
<server url="http://speedtest.telepost.gl/speedtest/upload.php" lat="64.1750" lon="-51.7389" name="Nuuk" country="Greenland" cc="GL" sponsor="Tele Greenland A/S" id="1066"  url2="http://speedtest.telepost.gl/speedtest/upload.php" host="speedtest.tele.gl:8080" />
<server url="http://speedtest.siminn.is/mini/speedtest/upload.php" lat="64.1333" lon="-21.9333" name="Reykjavik" country="Iceland" cc="IS" sponsor="Siminn" id="4818"  url2="http://speedtest2.siminn.is/mini/speedtest/upload.php" host="speedtest.siminn.is:8080" />
<server url="http://speedtest.hringidan.is/upload.php" lat="64.1333" lon="-21.9333" name="Reykjavik" country="Iceland" cc="IS" sponsor="Hringidan" id="16148"  host="speedtest.hringidan.is:8080" />
<server url="http://speedtest.c.is/speedtest/upload.php" lat="64.1333" lon="-21.9333" name="Reykjavík" country="Iceland" cc="IS" sponsor="Vodafone" id="4141"  url2="http://speedtest2.c.is/speedtest/upload.php" host="speedtest.c.is:8080" />
<server url="http://speedtest1.nova.is/speedtest/upload.aspx" lat="64.1333" lon="-21.9333" name="Reykjavik" country="Iceland" cc="IS" sponsor="Nova" id="3684"  host="speedtest1.nova.is:8080" />
<server url="http://speedtest01.gagnaveita.is/upload.php" lat="64.1333" lon="-21.9333" name="Reykjavik" country="Iceland" cc="IS" sponsor="Gagnaveita Reykjavikur" id="6471"  host="speedtest01.gagnaveita.is:8080" />
<server url="http://speedtest.sip.is/speedtest/upload.php" lat="64.1333" lon="-21.9333" name="Reykjavik" country="Iceland" cc="IS" sponsor="Simafelagid" id="10650"  url2="http://speedtest2.sip.is/speedtest/upload.php" host="speedtest.sip.is:8080" />
<server url="http://speedtest.andranet.is/upload.php" lat="64.1333" lon="-21.9333" name="Reykjavik" country="Iceland" cc="IS" sponsor="AndraNET" id="10588"  url2="http://speedtest2.andranet.is/upload.php" host="speedtest.andranet.is:8080" />
<server url="http://speedtest.hringdu.is/upload.php" lat="64.1333" lon="-21.9333" name="Reykjavík" country="IS" cc="IS" sponsor="Hringdu" id="17455"  host="speedtest.hringdu.is:8080" />
<server url="http://speedtest.whitestone.link/upload.php" lat="64.0378" lon="-145.7322" name="Delta Junction, AK" country="United States" cc="US" sponsor="Whitestone Power &amp; Communications" id="13679"  host="speedtest.whitestone.link:8080" />
<server url="http://speedtest3.verticalbroadband.com/speedtest/upload.php" lat="64.0378" lon="-145.7322" name="Delta Junction, AK" country="United States" cc="US" sponsor="Vertical Broadband LLC" id="10094"  url2="http://speedtest2.verticalbroadband.com/speedtest/upload.php" host="speedtest.verticalbroadband.com:8080" />
<server url="http://ookla-umea.alltele.net/upload.php" lat="63.8258" lon="20.2630" name="Umea" country="Sweden" cc="SE" sponsor="AllTele AB" id="10928"  url2="http://ookla-umea.t3.se/upload.php" host="ookla-umea.alltele.net:8080" />
<server url="http://speedtest-sg.karelia.pro/speedtest/upload.php" lat="63.7388" lon="34.3098" name="Segezha" country="Russian Federation" cc="RU" sponsor="CityLink Ltd" id="8657"  url2="http://speedtest-sg2.karelia.pro/speedtest/upload.php" host="speedtest-sg.karelia.pro:8080" />
<server url="http://speed1.multi.fi/speedtest/upload.aspx" lat="63.6667" lon="22.7000" name="Jakobstad" country="Finland" cc="FI" sponsor="JNT" id="6875"  url2="http://speed2.multi.fi/speedtest/upload.aspx" host="speed1.multi.fi:8080" />
<server url="http://speed1.homeip.net/upload.php" lat="63.6667" lon="22.7000" name="Jakobstad" country="Finland" cc="FI" sponsor="Mati forsman" id="17254"  host="mati.homeip.net:8080" />
<server url="http://speedtest2.homeip.net/upload.php" lat="63.5975" lon="22.7889" name="Bennäs" country="Finland" cc="FI" sponsor="Storbackas" id="11898"  host="speedtest2.homeip.net:8080" />
<server url="http://speedtest.itsjefen.no/speedtest/upload.php" lat="63.4297" lon="10.3933" name="Trondheim" country="Norway" cc="NO" sponsor="ITsjefen AS" id="1252"  url2="http://speedtest.vdc.no/speedtest/upload.php" host="speedtest.itsjefen.no:8080" />
<server url="http://speedtest1.hemnenett.no/upload.php" lat="63.2906" lon="9.0891" name="Kyrksæterøra" country="Norway" cc="NO" sponsor="Sodvin Energi og Fiber AS" id="11253"  host="speedtest1.hemnenett.no:8080" />
<server url="http://noyabrsk.speedtest.rt.ru/speedtest/upload.php" lat="63.2000" lon="75.4500" name="Noyabrsk" country="Russian Federation" cc="RU" sponsor="Rostelecom" id="4281"  url2="http://noyabrsk.speedtest2.rt.ru/speedtest/upload.php" host="noyabrsk.speedtest.rt.ru:8080" />
<server url="http://speed.global-x.ru/speedtest/upload.php" lat="63.2000" lon="75.4500" name="Noyabrsk" country="Russian Federation" cc="RU" sponsor="Sever-Svyaz" id="2017"  url2="http://speedtest.global-x.ru/speedtest/upload.php" host="speed.global-x.ru:8080" />
<server url="http://noyabrsk.speedtest-uf.megafon.ru/speedtest/upload.php" lat="63.2000" lon="75.4500" name="Noyabrsk" country="Russia" cc="RU" sponsor="MegaFon" id="17032"  host="noyabrsk.speedtest-uf.megafon.ru:8080" />
<server url="http://speedtest-mg.karelia.pro/speedtest/upload.php" lat="62.9132" lon="34.4619" name="Medvezhyegorsk" country="Russian Federation" cc="RU" sponsor="CityLink Ltd" id="8658"  url2="http://speedtest-mg2.karelia.pro/speedtest/upload.php" host="speedtest-mg.karelia.pro:8080" />
<server url="http://speedtest01.sucom.no/speedtest/upload.php" lat="62.6128" lon="8.6342" name="Sunndalsora" country="Norway" cc="NO" sponsor="SuCom AS" id="4197"  url2="http://speedtest02.sucom.no/speedtest/upload.php" host="speedtest01.sucom.no:8080" />
<server url="http://speed1.mimer.no/upload.php" lat="62.4778" lon="6.1903" name="Alesund" country="Norway" cc="NO" sponsor="Tafjord Marked AS" id="8070"  url2="http://speed2.mimer.no/upload.php" host="speed1.mimer.no:8080" />
<server url="http://speed2.stayon.no/speedtest/upload.php" lat="62.4778" lon="6.1903" name="Alesund" country="Norway" cc="NO" sponsor="StayOn" id="4039"  url2="http://speed3.stayon.no/speedtest/upload.php" host="speed2.stayon.no:8080" />
<server url="http://yk-netspeed.nwtel.ca/speedtest/upload.php" lat="62.4422" lon="-114.3975" name="Yellowknife, NT" country="Canada" cc="CA" sponsor="Northwestel Inc." id="13139"  host="yk-netspeed.nwtel.ca:8080" />
<server url="http://sp1.streetnet.com.br/speedtest/upload.php" lat="-22.7106" lon="-43.5522" name="Queimados" country="Brazil" cc="BR" sponsor="StreetNet" id="13617"  host="sp1.streetnet.com.br:8080" />
<server url="http://speedtest.mwainternet.com.br/speedtest/upload.php" lat="-22.7106" lon="-43.5522" name="Queimados" country="BR" cc="BR" sponsor="MWA INTERNET" id="17278"  host="speedtest.mwainternet.com.br:8080" />
<server url="http://speedtest.sulnetrc.com.br/upload.php" lat="-22.7259" lon="-44.1344" name="Rio Claro" country="Brazil" cc="BR" sponsor="SULNET RC Internet Provider" id="12524"  host="speedtest.sulnetrc.com.br:8080" />
<server url="http://speed1.velloznet.com.br/upload.php" lat="-22.7308" lon="-45.1247" name="Lorena" country="Brazil" cc="BR" sponsor="Velloznet" id="8412"  url2="http://speed2.velloznet.com.br/upload.php" host="speed1.velloznet.com.br:8080" />
<server url="http://vel-lna.mastercabo.com.br/mini/speedtest/upload.php" lat="-22.7308" lon="-45.1247" name="Lorena" country="Brazil" cc="BR" sponsor="MasterCabo" id="7932"  url2="http://vel-lna.mastercabo.com.br/speedtest/speedtest/upload.php" host="vel-lna.mastercabo.com.br:8080" />
<server url="http://sp1.byteweb.com.br/speedtest/upload.php" lat="-22.7386" lon="-47.3311" name="Americana" country="Brazil" cc="BR" sponsor="Byteweb Telecom" id="10275"  url2="http://sp2.byteweb.com.br/speedtest/upload.php" host="sp1.byteweb.com.br:8080" />
<server url="http://vel-cpj.mastercabo.com.br/mini/speedtest/upload.php" lat="-22.7394" lon="-45.5914" name="Campos do Jordao" country="Brazil" cc="BR" sponsor="MasterCabo" id="8023"  url2="http://vel-cpj.mastercabo.com.br/speedtest/speedtest/upload.php" host="vel-cpj.mastercabo.com.br:8080" />
<server url="http://speedtest1.maisnetinternet.com.br/speedtest1/upload.php" lat="-22.7415" lon="-42.7804" name="Tangua" country="Brazil" cc="BR" sponsor="Maisnet internet" id="9975"  url2="http://speedtest2.maisnetinternet.com.br/speedtest2/upload.php" host="speedtest1.maisnetinternet.com.br:8080" />
<server url="http://speedtest.popsnet.com.br/speedtest/upload.php" lat="-22.7439" lon="-43.7075" name="Seropédica" country="BR" cc="XX" sponsor="Pop's Net" id="16825"  host="speedtest.popsnet.com.br:8080" />
<server url="http://speedtest.v1telecom.com.br/speedtest/upload.php" lat="-22.7439" lon="-43.7075" name="Seropedica" country="Brazil" cc="BR" sponsor="V1 Telecom" id="6922"  url2="http://speedtest2.v1telecom.com.br/speedtest/upload.php" host="speedtest.v1telecom.com.br:8080" />
<server url="http://speedtest1.gigaline.com.br/mini/upload.php" lat="-22.7477" lon="-42.8630" name="Itaborai" country="Brazil" cc="BR" sponsor="LESTETELECOM" id="4536"  url2="http://speedtest.gigaline.com.br/mini/upload.php" host="speedtest1.gigaline.com.br:8080" />
<server url="http://redebrasiltelecom.com.br/speedtest/upload.php" lat="-22.7561" lon="-43.4607" name="Nova Iguaçu" country="Brazil" cc="BR" sponsor="Rede Brasil Telecom" id="11585"  host="redebrasiltelecom.com.br:8080" />
<server url="http://speedtest.sintnet.com.br/speedtest/upload.php" lat="-22.7561" lon="-43.4607" name="Nova Iguaçu" country="BR" cc="BR" sponsor="SINTERCOM" id="17276"  host="speedtest.sintnet.com.br:8080" />
<server url="http://speedtestbzs0.cbf.west.net.br/speedtest/upload.php" lat="-22.7564" lon="-41.8891" name="Buzios" country="Brazil" cc="BR" sponsor="West Internet" id="10009"  url2="http://speedtestbzs1.cbf.west.net.br/speedtest/upload.php" host="speedtestbzs0.cbf.west.net.br:8080" />
<server url="http://speedtest.linkbuzios.net.br/speedtest/upload.php" lat="-22.7564" lon="-41.8890" name="Armação dos Búzios" country="Brazil" cc="BR" sponsor="LINK BUZIOS" id="15665"  host="speedtest.linkbuzios.net.br:8080" />
<server url="http://planety.com.br/speedtest/upload.php" lat="-22.7576" lon="-42.1344" name="Sao Pedro da Aldeia" country="Brazil" cc="BR" sponsor="PLANETY INTERNET SERVIÇOS E COMUNICAÇÕES LTDA - ME" id="12809"  host="planety.com.br:8080" />
<server url="http://speed1.novanet-rj.com.br/speedtest/upload.php" lat="-22.7645" lon="-43.3996" name="Belford Roxo" country="Brazil" cc="BR" sponsor="NOVA NET" id="9820"  url2="http://speed2.novanet-rj.com.br/speedtest/upload.php" host="speed1.novanet-rj.com.br:8080" />
<server url="http://speedtest.scrio.net/speedtest/upload.php" lat="-22.7819" lon="-43.4293" name="Mesquita" country="Brazil" cc="BR" sponsor="S.C. RIO TELECOM" id="8622"  url2="http://speedtest.scrio.com.br/speedtest/upload.php" host="speedtest.scrio.net:8080" />
<server url="http://rj1.stationnet.com.br/speedtest/upload.php" lat="-22.7858" lon="-43.3119" name="Duque de Caxias" country="Brazil" cc="BR" sponsor="Station Net Provedor" id="6991"  url2="http://rj2.stationnet.com.br/speedtest/upload.php" host="speedtest.stationnet.com.br:8080" />
<server url="http://rj1.empresarialnet.net.br/speedtest/upload.php" lat="-22.7858" lon="-43.3119" name="Duque de Caxias" country="Brazil" cc="BR" sponsor="Empresarial Net Banda Larga" id="9076"  url2="http://rj2.empresarialnet.net.br/speedtest/upload.php" host="rj1.empresarialnet.net.br:8080" />
<server url="http://speedtest.redebrtelecom.com.br/speedtest/upload.php" lat="-22.7858" lon="-43.3119" name="Duque de Caxias" country="Brazil" cc="BR" sponsor="RedeBR" id="8998"  url2="http://speedtest.tologado.com.br/speedtest/upload.php" host="speedtest.redebrtelecom.com.br:8080" />
<server url="http://reptile.tdkom.psi.br/speedtest/upload.php" lat="-22.7973" lon="-49.5687" name="Santa Cruz do Rio Pardo" country="Brazil" cc="BR" sponsor="TDKOM" id="13530"  host="reptile.tdkom.psi.br:8080" />
<server url="http://speedtest.planaltonetsantacruz.com.br/upload.php" lat="-22.7973" lon="-49.5687" name="Santa Cruz do Rio Pardo" country="Brazil" cc="BR" sponsor="PLANALTO NET SANTA CRUZ" id="12333"  host="speedtest.planaltonetsantacruz.com.br:8080" />
<server url="http://sumare.speedtest.acessoturbo.net.br/speedtest/upload.php" lat="-22.8219" lon="-47.2669" name="Sumare" country="Brazil" cc="BR" sponsor="Net Turbo Telecom" id="3469"  url2="http://186.209.39.247/speedtest/upload.php" host="sumare.speedtest.acessoturbo.net.br:8080" />
<server url="http://speedtest.ultraconexao.com.br/speedtest/upload.php" lat="-22.8273" lon="-43.0638" name="Sao Goncalo" country="Brazil" cc="BR" sponsor="Ultraconexao" id="14823"  host="speedtest.ultraconexao.com.br:8080" />
<server url="http://speedtest.crnetbrasil.com.br/speedtest/upload.php" lat="-22.8273" lon="-43.0638" name="São Gonçalo" country="BR" cc="BR" sponsor="CRNETBRASIL" id="17604"  host="speedtest.crnetbrasil.com.br:8080" />
<server url="http://velocimetro.meganetinternet.com.br/speedtest/upload.php" lat="-22.8273" lon="-43.0638" name="Sao Goncalo" country="Brazil" cc="BR" sponsor="Meganet Internet Banda Larga" id="14977"  host="velocimetro.meganetinternet.com.br:8080" />
<server url="http://speedtest.wninternet.com.br/speedtest/upload.php" lat="-22.8533" lon="-47.2147" name="Hortolandia" country="Brazil" cc="BR" sponsor="WN Internet" id="14828"  host="speedtest.wninternet.com.br:8080" />
<server url="http://speedtest.openwifi.net.br/speedtest/upload.php" lat="-22.8550" lon="-46.3178" name="Extrema" country="Brazil" cc="BR" sponsor="OpenWiFi" id="6584"  url2="http://speedtest2.openwifi.net.br/speedtest/upload.php" host="speedtest.openwifi.net.br:8080" />
<server url="http://speedtest.newnet.psi.br/speedtest/upload.php" lat="-22.8789" lon="-42.0189" name="Cabo Frio" country="Brazil" cc="BR" sponsor="New Net Telecom Eirelli" id="13203"  host="speedtest.newnet.psi.br:8080" />
<server url="http://speedtest1.segtronic.com.br/speedtest/upload.php" lat="-22.8842" lon="-48.4442" name="Botucatu" country="Brazil" cc="BR" sponsor="SEGTRONIC INTERNET BANDA LARGA" id="10887"  url2="http://speedtest2.segtronic.com.br/speedtest/upload.php" host="teste.segtronic.com.br:8080" />
<server url="http://speedtest.conexaointernet.com.br/speedtest/upload.php" lat="-22.9000" lon="-53.1667" name="Loanda" country="Brazil" cc="BR" sponsor="Conexao Internet" id="4448"  url2="http://speedtest2.conexaointernet.com.br/speedtest/upload.php" host="speedtest.conexaointernet.com.br:8080" />
<server url="http://sp1.netwtelecom.com.br/speedtest/upload.php" lat="-22.9000" lon="-53.1667" name="Loanda" country="Brazil" cc="BR" sponsor="Netw Telecom" id="8682"  url2="http://sp2.netwtelecom.com.br/speedtest/upload.php" host="sp1.netwtelecom.com.br:8080" />
<server url="http://velocidade.mvatelecom.com.br/upload.php" lat="-22.9009" lon="-47.0573" name="Campinas" country="Brazil" cc="BR" sponsor="MVA TELECOM" id="14427"  host="velocidade.mvatelecom.com.br:8080" />
<server url="http://sp1.minutostelecom.com.br/speedtest/upload.php" lat="-22.9009" lon="-47.0573" name="Campinas" country="Brazil" cc="BR" sponsor="MinutosTelecom" id="10451"  url2="http://sp2.minutostelecom.com.br/speedtest/upload.php" host="sp1.minutostelecom.com.br:8080" />
<server url="http://apollo.mpc.com.br/speedtest/upload.php" lat="-22.9009" lon="-47.0573" name="Campinas" country="Brazil" cc="BR" sponsor="MPC Internet" id="9960"  url2="http://velocidade.mpc.com.br/speedtest/upload.php" host="apollo.mpc.com.br:8080" />
<server url="http://campinas.speedtest.acessoturbo.net.br/speedtest/upload.php" lat="-22.9009" lon="-47.0573" name="Campinas" country="Brazil" cc="BR" sponsor="Net Turbo Telecom" id="1846"  url2="http://186.209.39.23/speedtest/upload.php" host="campinas.speedtest.acessoturbo.net.br:8080" />
<server url="http://velocimetro.rjo.virtua.com.br/speedtest/upload.php" lat="-22.9068" lon="-43.1729" name="Rio de Janeiro" country="Brazil" cc="BR" sponsor="NET Serviços" id="14612"  host="velocimetro.rjo.virtua.com.br:8080" />
<server url="http://brariospeedtest01.level3.net/speedtest/upload.php" lat="-22.9068" lon="-43.1729" name="Rio de Jeneiro" country="Brazil" cc="BR" sponsor="CenturyLink" id="16156"  host="brariospeedtest01.level3.net:8080" />
<server url="http://svstrjo0101.timbrasil.com.br/speedtest/upload.php" lat="-22.9068" lon="-43.1729" name="Rio de Janeiro" country="Brazil" cc="BR" sponsor="TIM Brasil" id="3065"  url2="http://svstrjo0102.timbrasil.com.br/speedtest/upload.php" host="svstrjo0101.timbrasil.com.br:8080" />
<server url="http://speedtest1.cittatelecom.net.br/speedtest/upload.php" lat="-22.9068" lon="-43.1729" name="Rio De Janeiro" country="Brazil" cc="BR" sponsor="Citta Telecom" id="11734"  host="speedtest1.cittatelecom.net.br:8080" />
<server url="http://speedtest.mlmfibra.com.br/speedtest/upload.php" lat="-22.9068" lon="-43.1729" name="Rio de Janeiro" country="Brazil" cc="BR" sponsor="MLM Fibra" id="11211"  host="speedtest.mlmfibra.com.br:8080" />
<server url="http://speedtest0.rjo.west.net.br/speedtest/upload.php" lat="-22.9068" lon="-43.1729" name="Rio de Janeiro" country="Brazil" cc="BR" sponsor="West Internet" id="4133"  host="speedtest0.rjo.west.net.br:8080" />
<server url="http://ooklaserver.wlenet.com.br/speedtest/upload.php" lat="-22.9068" lon="-43.1729" name="Rio de Janeiro" country="Brazil" cc="BR" sponsor="WLENET" id="12814"  host="ooklaserver.wlenet.com.br:8080" />
<server url="http://speedtest-a.telecall.com/upload.php" lat="-22.9068" lon="-43.1729" name="Rio de Janeiro" country="Brazil" cc="BR" sponsor="TELECALL" id="6773"  url2="http://speedtest-b.telecall.com/upload.php" host="speedtest-a.telecall.com:8080" />
<server url="http://speedtest-rjo-tlp.g8telecom.net.br/speedtest/upload.php" lat="-22.9068" lon="-43.1729" name="Rio de Janeiro" country="Brazil" cc="BR" sponsor="G8" id="15933"  host="speedtest-rjo-tlp.g8telecom.net.br:8080" />
<server url="http://nethouserj.com.br/speedtest/speedtest/upload.php" lat="-22.9068" lon="-43.1729" name="Rio De Janeiro" country="Brazil" cc="BR" sponsor="Net-House Telecom" id="11567"  host="nethouserj.com.br:8080" />
<server url="http://speedtest.nbtelecom.com.br/speedtest/upload.php" lat="-22.9068" lon="-43.1729" name="Rio de Janeiro" country="Brazil" cc="BR" sponsor="NB Telecom" id="6533"  url2="http://speedtest3.nbtelecom.com.br/speedtest/upload.php" host="189.45.13.229:8080" />
<server url="http://speedtest.seniortelecomunicacao.com.br/speedtest2/upload.php" lat="-22.9068" lon="-43.1729" name="Rio De Janeiro" country="BR" cc="BR" sponsor="Senior Telecom" id="17009"  host="speedtest.seniortelecomunicacao.com.br:8080" />
<server url="http://sp1.gotelecom.com.br/speedtest/upload.php" lat="-22.9068" lon="-43.1729" name="Rio de Janeiro" country="Brazil" cc="BR" sponsor="Go! Telecom" id="9339"  url2="http://sp2.gotelecom.com.br/speedtest/upload.php" host="sp1.gotelecom.com.br:8080" />
<server url="http://lnptelecom.com.br/speedtest/upload.php" lat="-22.9068" lon="-43.1729" name="Rio de Janeiro" country="Brazil" cc="BR" sponsor="LNP Telecom" id="15071"  host="lnptelecom.com.br:8080" />
<server url="http://speedtest.novarj.com.br/speedtest/upload.php" lat="-22.9068" lon="-43.1728" name="Rio de Janeiro" country="Brazil" cc="BR" sponsor="NovaRJ Serv. e Telecom." id="14188"  host="speedtest.novarj.com.br:8080" />
<server url="http://speedtest.dominioz.com.br/upload.php" lat="-22.9239" lon="-45.4617" name="Pindamonhangaba" country="Brazil" cc="BR" sponsor="Dominioz Telecom" id="6175"  url2="http://speedtest.valelink.com.br/upload.php" host="speedtest.dominioz.com.br:8080" />
<server url="http://speedtest.redenilf.com.br/speedtest/upload.php" lat="-22.9532" lon="-46.5423" name="Braganca Paulista" country="Brazil" cc="BR" sponsor="REDENILF SERVICOS DE TELECOMUNICACOES LTDA" id="9014"  url2="http://speedtest.bragnet.com.br/speedtest/upload.php" host="speedtest.redenilf.com.br:8080" />
<server url="http://velocimetro.connectnetwork.net.br/speedtest/upload.php" lat="-22.9599" lon="-44.0413" name="Mangaratiba" country="Brazil" cc="BR" sponsor="Connect Network" id="7141"  url2="http://velocimetro1.connectnetwork.net.br/speedtest/upload.php" host="velocimetro.connectnetwork.net.br:8080" />
<server url="http://valinhos.speedtest.acessoturbo.net.br/speedtest/upload.php" lat="-22.9706" lon="-46.9958" name="Valinhos" country="Brazil" cc="BR" sponsor="Net Turbo Telecom" id="1605"  url2="http://186.209.39.20/speedtest/upload.php" host="valinhos.speedtest.acessoturbo.net.br:8080" />
<server url="http://speedtest1.tdkom.psi.br/speedtest/upload.php" lat="-22.9744" lon="-49.8719" name="Ourinhos" country="Brazil" cc="BR" sponsor="TDKOM Informatica" id="6761"  url2="http://speedtest2.tdkom.psi.br/speedtest/upload.php" host="speedtest.tdkom.psi.br:8080" />
<server url="http://speedtest.webbytelecom.com.br/speedtest/upload.php" lat="-22.9744" lon="-49.8719" name="Ourinhos" country="Brazil" cc="BR" sponsor="Webby Telecom" id="12004"  host="speedtest.webbytelecom.com.br:8080" />
<server url="http://spdorn1.cabonnet.com.br/mini/speedtest/upload.php" lat="-22.9744" lon="-49.8719" name="Ourinhos" country="Brazil" cc="BR" sponsor="Cabonnet Ourinhos" id="6097"  url2="http://spdorn2.cabonnet.com.br/mini/speedtest/upload.php" host="spdorn1.cabonnet.com.br:8080" />
<server url="http://www.upnetweb.com.br/speedtest/upload.php" lat="-22.9960" lon="-51.2422" name="Bela Vista do Paraíso" country="Brazil" cc="BR" sponsor="Upnet Telecom" id="10121"  url2="http://www.mkweb.com.br/speedtest/upload.php" host="www.upnetweb.com.br:8080" />
<server url="http://speedtest1.eagleredes.net.br/speedtest/upload.php" lat="-22.9972" lon="-47.5128" name="Capivari" country="Brazil" cc="BR" sponsor="EAGLE REDES" id="12449"  host="speedtest1.eagleredes.net.br:8080" />
<server url="http://speed1.netwave.com.br/upload.php" lat="-23.0058" lon="-46.8389" name="Itatiba" country="Brazil" cc="BR" sponsor="Netwave Telecomunicações Ltda." id="7561"  url2="http://speed2.netwave.com.br/upload.php" host="speed1.netwave.com.br:8080" />
<server url="http://ookla.vmaxnet.com.br/speedtest/upload.php" lat="-23.0058" lon="-46.8389" name="Itatiba" country="Brazil" cc="BR" sponsor="Vmax Telecom" id="7119"  url2="http://ookla2.vmaxnet.com.br/speedtest/upload.php" host="ookla.vmaxnet.com.br:8080" />
<server url="http://itatiba.speedtest.acessoturbo.net.br/speedtest/upload.php" lat="-23.0058" lon="-46.8389" name="Itatiba" country="Brazil" cc="BR" sponsor="Net Turbo Telecom" id="3450"  url2="http://186.209.39.250/speedtest/upload.php" host="itatiba.speedtest.acessoturbo.net.br:8080" />
<server url="http://speedtest.globaltelecombr.com.br/speedtest/upload.php" lat="-23.0058" lon="-44.3158" name="Angra dos Reis" country="Brazil" cc="BR" sponsor="Global Telecom do Brasil" id="14474"  host="speedtest.globaltelecombr.com.br:8080" />
<server url="http://netangra.com.br/speedtest/upload.php" lat="-23.0067" lon="-44.3181" name="Angra dos Reis" country="Brazil" cc="BR" sponsor="NET ANGRA" id="7114"  url2="http://netangra.com.br/speedtest/upload.php" host="186.237.161.40:8080" />
<server url="http://speedtest.emextelecom.com.br/speedtest/upload.php" lat="-23.0067" lon="-44.3181" name="Angra dos Reis" country="Brazil" cc="BR" sponsor="EMEX TELECOM" id="9127"  url2="http://speedtest2.emextelecom.com.br/speedtest/upload.php" host="speedtest.emextelecom.com.br:8080" />
<server url="http://vel-tte.mastercabo.com.br/speedtest/speedtest/upload.php" lat="-23.0205" lon="-45.5564" name="Taubaté" country="Brazil" cc="BR" sponsor="MASTER" id="15496"  host="vel-tte.mastercabo.com.br:8080" />
<server url="http://speedtesttau1.cabonnet.com.br/speedtest/speedtest/upload.php" lat="-23.0205" lon="-45.5564" name="Taubaté" country="Brazil" cc="BR" sponsor="Hinet" id="10649"  url2="http://speedtesttau2.cabonnet.com.br/speedtest/speedtest/upload.php" host="speedtesttau1.cabonnet.com.br:8080" />
<server url="http://186.209.39.21/speedtest/upload.php" lat="-23.0297" lon="-46.9753" name="Vinhedo" country="Brazil" cc="BR" sponsor="Net Turbo Telecom" id="1606"  url2="http://vinhedo.speedtest.acessoturbo.net.br/speedtest/upload.php" host="vinhedo.speedtest.acessoturbo.net.br:8080" />
<server url="http://speedtest.cednet.com.br/upload.php" lat="-23.0389" lon="-49.7094" name="Chavantes" country="Brazil" cc="BR" sponsor="CedNet Provedor" id="6839"  url2="http://speedtest.cednetwork.com.br/upload.php" host="speedtest.cednet.com.br:8080" />
<server url="http://speedtest.ondns.com.br/ookla/upload.php" lat="-23.0623" lon="-54.2000" name="Navirai" country="Brazil" cc="BR" sponsor="New Parce Telecom" id="10320"  url2="http://minhaconexao.ondns.com.br/ookla/upload.php" host="speedtest.ondns.com.br:8080" />
<server url="http://speedtest.solucaonetwork.com/speedtest/upload.php" lat="-23.0728" lon="-52.4650" name="Paranavai" country="Brazil" cc="BR" sponsor="Solucao Network" id="6462"  url2="http://speedtest2.solucaonetwork.com/speedtest/upload.php" host="speedtest.solucaonetwork.com:8080" />
<server url="http://speedtest.fornet.com.br/speedtest/upload.php" lat="-23.0728" lon="-52.4650" name="Paranavai" country="Brazil" cc="BR" sponsor="ForNet InterNet" id="6448"  url2="http://187.33.208.9/speedtest/upload.php" host="speedtest.fornet.com.br:8080" />
<server url="http://speedtest.prtelecom.com.br/speedtest/speedtest/upload.php" lat="-23.0811" lon="-48.3736" name="Pardinho" country="Brazil" cc="BR" sponsor="PR TELECOM" id="3872"  url2="http://velocidade.prtelecom.com.br/speedtest/speedtest/upload.php" host="speedtest.prtelecom.com.br:8080" />
<server url="http://velocidade.pignet.com.br/speedtest/upload.aspx" lat="-23.0864" lon="-46.9506" name="Louveira" country="Brazil" cc="BR" sponsor="Pignet Internet Banda Larga" id="9088"  url2="http://speedtest0.pignet.com.br/speedtest/upload.aspx" host="velocidade.pignet.com.br:8080" />
<server url="http://louveira.speedtest.acessoturbo.net.br/speedtest/upload.php" lat="-23.0864" lon="-46.9506" name="Louveira" country="Brazil" cc="BR" sponsor="Net Turbo Telecom" id="3451"  url2="http://186.209.39.249/speedtest/upload.php" host="louveira.speedtest.acessoturbo.net.br:8080" />
<server url="http://speedtest.onecenter.com.vc/speedtest/upload.php" lat="-23.1072" lon="-48.9255" name="Avare" country="Brazil" cc="BR" sponsor="The Center Informatica" id="9569"  url2="http://186.235.40.226/speedtest/upload.php" host="speedtest.onecenter.com.vc:8080" />
<server url="http://speedtest.starnettelecom.com.br/speedtest/upload.php" lat="-23.1175" lon="-46.5567" name="Atibaia" country="Brazil" cc="BR" sponsor="STARNET TELECOM" id="10918"  url2="http://ookla.starnettelecom.com.br/speedtest/upload.php" host="speedtest.starnettelecom.com.br:8080" />
<server url="http://speedtest.nexthop.net.br/speedtest/upload.php" lat="-23.1176" lon="-46.5567" name="Atibaia" country="Brazil" cc="BR" sponsor="Impacto Telecom" id="14298"  host="speedtest.nexthop.net.br:8080" />
<server url="http://sp1.2rtelecom.com.br/upload.php" lat="-23.1356" lon="-53.2612" name="Santa Isabel do Ivai" country="Brasil" cc="BR" sponsor="2R Telecom" id="11389"  host="sp1.2rtelecom.com.br:8080" />
<server url="http://speedtest.gfibra.com.br/speedtest/upload.php" lat="-23.1550" lon="-47.0525" name="Itupeva" country="Brazil" cc="BR" sponsor="Geracao Real Banda Larga" id="16420"  host="speedtest.gfibra.com.br:8080" />
<server url="http://speedtest.vianet.srv.br/speedtest/upload.php" lat="-23.1550" lon="-47.0525" name="Itupeva" country="BR" cc="BR" sponsor="Vianet" id="17624"  host="speedtest.vianet.srv.br:8080" />
<server url="http://speedtest.testesuavelocidade.com.br/speedtest/upload.php" lat="-23.1670" lon="-47.7464" name="Cerquilho" country="Brazil" cc="BR" sponsor="FasterNet" id="13521"  host="speedtest.testesuavelocidade.com.br:8080" />
<server url="http://speedtest.pombonet.com.br/speedtest/upload.php" lat="-23.1857" lon="-46.8978" name="Jundiaí" country="Brazil" cc="BR" sponsor="PomboNet" id="15236"  host="speedtest.pombonet.com.br:8080" />
<server url="http://speedtest.fox.com.br/speedtest/upload.php" lat="-23.1857" lon="-46.8978" name="Jundiai" country="Brazil" cc="BR" sponsor="Fox Telecomunicação e Internet" id="15029"  host="speedtest.fox.com.br:8080" />
<server url="http://velocidade.maxiweb.com.br/speedtest/upload.php" lat="-23.1864" lon="-46.8842" name="Jundiai" country="Brazil" cc="BR" sponsor="Maxiweb Internet Provider" id="5691"  url2="http://www.velocidade.maxiweb.com.br/speedtest/upload.php" host="velocidade.maxiweb.com.br:8080" />
<server url="http://medidor.intervale.com.br/upload.php" lat="-23.1864" lon="-45.8786" name="São José Dos Campos" country="Brazil" cc="BR" sponsor="INTERVALE" id="16963"  host="medidor.intervale.com.br:8080" />
<server url="http://speedtest.nipbr.com.br/upload.php" lat="-23.1864" lon="-45.8786" name="Sao Jose dos Campos" country="Brazil" cc="BR" sponsor="NIPBR" id="6222"  host="speedtest.nipbr.com.br:8080" />
<server url="http://speedtest.brasilnetcp.net.br/speedtest/upload.php" lat="-23.1978" lon="-50.6379" name="Cornelio Procopio" country="Brazil" cc="BR" sponsor="Brasilnet" id="9298"  url2="http://speedtest2.brasilnetcp.net.br/speedtest/upload.php" host="speedtest.brasilnetcp.net.br:8080" />
<server url="http://speedgoofiber.goofiber.com.br/speedtest/upload.php" lat="-23.2141" lon="-46.8239" name="Varzea Paulista" country="Brazil" cc="BR" sponsor="GOOFIBER TELECOM" id="12003"  host="speedgoofiber.goofiber.com.br:8080" />
<server url="http://sppeedtest.cdone.net.br/speedtest/upload.php" lat="-23.3000" lon="-48.0500" name="Quadra" country="Brazil" cc="BR" sponsor="CD ONE Corporation do Brasil" id="8230"  url2="http://cdone.com.br/speedtest/upload.php" host="sppeedtest.cdone.net.br:8080" />
<server url="http://speedtest.internetativa.com.br/speedtest/upload.php" lat="-23.3058" lon="-47.1367" name="Cabreuva" country="Brazil" cc="BR" sponsor="Ativa comunicação multimídia ltda me" id="10325"  url2="http://speedtest1.internetativa.com.br/speedtest/upload.php" host="speedtest.internetativa.com.br:8080" />
<server url="http://speedtest.sercomtel.com.br/speedtest/upload.php" lat="-23.3100" lon="-51.1628" name="Londrina" country="Brazil" cc="BR" sponsor="Sercomtel" id="13066"  host="speedtest.sercomtel.com.br:8080" />
<server url="http://ookla.persistelecom.com.br/speedtest/upload.php" lat="-23.3100" lon="-51.1628" name="Londrina" country="Brazil" cc="BR" sponsor="Persis Telecom" id="4898"  url2="http://speedtest.londrina.net/speedtest/upload.php" host="ookla.persistelecom.com.br:8080" />
<server url="http://iw-net.com.br/speedtest/upload.php" lat="-23.3462" lon="-52.0949" name="Mandaguacu" country="Brazil" cc="BR" sponsor="IWNET" id="11921"  host="iw-net.com.br:8080" />
<server url="http://vel-cjr.tvalphaville.com.br/speedtest/upload.php" lat="-23.3555" lon="-46.8786" name="Cajamar" country="Brazil" cc="BR" sponsor="TV ALPHAVILLE" id="14853"  host="vel-cjr.tvalphaville.com.br:8080" />
<server url="http://speedtest.grimmtelecom.com.br/speedtest/upload.php" lat="-23.3555" lon="-46.8786" name="Cajamar" country="Brazil" cc="BR" sponsor="Grimm Telecom" id="16425"  host="speedtest.grimmtelecom.com.br:8080" />
<server url="http://speedtest.wmatera.com.br/ookla/upload.php" lat="-23.3852" lon="-53.2943" name="Douradina" country="Brazil" cc="BR" sponsor="WMatera Telecom" id="10205"  url2="http://speedtest2.wmatera.com.br/ookla/upload.php" host="speedtest.wmatera.com.br:8080" />
<server url="http://sp1-fartura.txfiber.com.br/speedtest/upload.php" lat="-23.3880" lon="-49.5077" name="Fartura" country="BR" cc="XX" sponsor="TxFiber Telecom" id="16848"  host="sp1-fartura.txfiber.com.br:8080" />
<server url="http://speedtest1.sannetvale.com.br/speedtest/upload.php" lat="-23.3902" lon="-45.6627" name="Paraibuna" country="Brazil" cc="BR" sponsor="Sannet Vale" id="13458"  host="speedtest1.sannetvale.com.br:8080" />
<server url="http://speedtest.mga.ligue.net/speedtest/upload.php" lat="-23.4000" lon="-51.9167" name="Maringá" country="Brazil" cc="BR" sponsor="LIGUE" id="10354"  url2="http://speedtest2.mga.ligue.net/speedtest/upload.php" host="speedtest.mga.ligue.net:8080" />
<server url="http://speedtest.fibercom.net.br/speedtest/upload.php" lat="-23.4000" lon="-51.9167" name="Maringá" country="Brazil" cc="BR" sponsor="Fibercom" id="11096"  host="speedtest.fibercom.net.br:8080" />
<server url="http://host.iradionet.com.br/speedtest/upload.php" lat="-23.4000" lon="-51.9167" name="Maringá" country="Brazil" cc="BR" sponsor="IRADIO TELECOM" id="10636"  url2="http://host.iradiotelecom.com.br/speedtest2/upload.php" host="www.iradionet.com.br:8080" />
<server url="http://170.0.188.34/speedtest/upload.php" lat="-23.4139" lon="-52.7661" name="Rondon" country="Brazil" cc="BR" sponsor="Netw-i" id="9499"  url2="http://170.0.188.34/speedtest2/upload.php" host="170.0.188.34:8080" />
<server url="http://speedtest.conecttiva.com.br/upload.php" lat="-23.4158" lon="-51.4264" name="Arapongas" country="Brazil" cc="BR" sponsor="Conecttiva Telecom" id="10350"  url2="http://speedtest2.conecttiva.com.br/upload.php" host="speedtest.conecttiva.com.br:8080" />
<server url="http://speedtest.mgp.net.br/speedtest/upload.php" lat="-23.4210" lon="-51.9331" name="Maringa" country="Brazil" cc="BR" sponsor="MGP Telecom" id="14752"  host="speedtest.mgp.net.br:8080" />
<server url="http://vel-spb.tvalphaville.com.br/mini/speedtest/upload.php" lat="-23.4439" lon="-46.9178" name="Santana de Parnaiba" country="Brazil" cc="BR" sponsor="TV Alphaville" id="10506"  url2="http://vel-spb2.tvalphaville.com.br/speedtest/upload.php" host="vel-spb.tvalphaville.com.br:8080" />
<server url="http://speedtest.wjinternet.com.br/speedtest/upload.php" lat="-23.4543" lon="-46.5337" name="Guarulhos" country="Brazil" cc="BR" sponsor="WJ INTERNET" id="16114"  host="speedtest.wjinternet.com.br:8080" />
<server url="http://speedtest.intersultelecom.com/speedtest/upload.php" lat="-23.4555" lon="-52.0423" name="Paiçandu" country="Brazil" cc="BR" sponsor="Intersul Telecom" id="16441"  host="speedtest.intersultelecom.com:8080" />
<server url="http://sp1-taguai.txfiber.com.br/speedtest/upload.php" lat="-23.4677" lon="-49.3856" name="Taguai" country="BR" cc="XX" sponsor="TxFiber Telecom" id="16849"  host="sp1-taguai.txfiber.com.br:8080" />
<server url="http://164.163.96.34/speedtest/upload.php" lat="-23.4773" lon="-49.7320" name="Carlopolis" country="Brazil" cc="BR" sponsor="Info+ Telecom" id="8676"  url2="http://164.163.96.34/speedtest2/upload.php" host="164.163.96.34:8080" />
<server url="http://speedtest.consutech.com.br/upload.php" lat="-23.4773" lon="-49.7320" name="Carlopolis" country="Brazil" cc="BR" sponsor="ConsuTech" id="8859"  host="speedtest.consutech.com.br:8080" />
<server url="http://speedtest.isuper.com.br/speedtest/upload.php" lat="-23.4846" lon="-51.7930" name="Marialva" country="Brazil" cc="BR" sponsor="iSUPER Telecom" id="13606"  host="speedtest.isuper.com.br:8080" />
<server url="http://speedtest.supersonic.net.br/speedtest/upload.php" lat="-23.4849" lon="-46.3495" name="Itaquaquecetuba" country="Brazil" cc="BR" sponsor="SUPER SONIC" id="16236"  host="speedtest.supersonic.net.br:8080" />
<server url="http://138.118.56.26/speedtest/upload1/upload.php" lat="-23.4849" lon="-46.3495" name="Itaquaquecetuba" country="Brazil" cc="BR" sponsor="GlobalTech Telecom" id="9234"  url2="http://138.118.56.26/speedtest/upload2/upload.php" host="138.118.56.26:8080" />
<server url="http://sao.speedtest.net/speedtest/upload.php" lat="-23.5000" lon="-46.6167" name="Sao Paulo" country="Brazil" cc="BR" sponsor="Speedtest.net" id="10559"  url2="http://169.57.165.79/speedtest/upload.php" host="sao.speedtest.net:80" />
<server url="http://speedtestsp.stech.net.br/speedtest/upload.php" lat="-23.5000" lon="-46.6167" name="Sao Paulo" country="Brazil" cc="BR" sponsor="Vogel Telecom" id="9948"  url2="http://speedtestsp1.stech.net.br/speedtest/upload.php" host="speedtestsp.stech.net.br:8080" />
<server url="http://svstsne0101.timbrasil.com.br/speedtest/upload.php" lat="-23.5000" lon="-46.6167" name="Sao Paulo" country="Brazil" cc="BR" sponsor="TIM Brasil" id="3068"  url2="http://svstsne0102.timbrasil.com.br/speedtest/upload.php" host="svstsne0101.timbrasil.com.br:8080" />
<server url="http://speedtest.asaptelecom.com.br/upload.php" lat="-23.5000" lon="-46.6167" name="Sao Paulo" country="Brazil" cc="BR" sponsor="ASAP GLOBAL TELECOM" id="7690"  url2="http://speedtest2.asaptelecom.com.br/upload.php" host="speedtest.asaptelecom.com.br:8080" />
<server url="http://speedtest.gamersclub.com.br/speedTest/upload.php" lat="-23.5000" lon="-46.6167" name="São Paulo" country="Brazil" cc="BR" sponsor="GAMERS CLUB" id="15147"  host="speedtest.gamersclub.com.br:8080" />
<server url="http://speedtest-ookla-prod-001-sao.ff.avast.com/speedtest/upload.php" lat="-23.5000" lon="-46.6167" name="São Paulo" country="Brazil" cc="BR" sponsor="CCleaner" id="16680"  host="speedtest-ookla-prod-001-sao.ff.avast.com:8080" />
<server url="http://speed1.brotherslan.com.br/speedtest/upload.php" lat="-23.5000" lon="-46.6167" name="Sao Paulo" country="Brazil" cc="BR" sponsor="Via Fibra Telecom - PONTO NET &amp; RL NET" id="12322"  host="speed1.brotherslan.com.br:8080" />
<server url="http://speedtest.dsnetfg.com.br/speedtest/upload.php" lat="-23.5000" lon="-46.6167" name="São Paulo" country="BR" cc="XX" sponsor="Eduardo Carvalho" id="16896"  host="speedtest.dsnetfg.com.br:8080" />
<server url="http://ookla.spcom.net.br/speedtest/upload.php" lat="-23.5000" lon="-46.6167" name="Sao Paulo" country="Brazil" cc="BR" sponsor="Criare Net Telecom" id="11488"  host="ookla.spcom.net.br:8080" />
<server url="http://bw1.jpproviders.com.br/speedtest/upload.php" lat="-23.5000" lon="-46.6167" name="Sao Paulo" country="Brazil" cc="BR" sponsor="JP PROVIDERS" id="9000"  url2="http://bw2.jpproviders.com.br/speedtest/upload.php" host="bw1.jpproviders.com.br:8080" />
<server url="http://testedevelocidade.vivo.com.br/speedtest/upload.php" lat="-23.5000" lon="-46.6167" name="São Paulo" country="Brazil" cc="BR" sponsor="Vivo SPPD" id="16438"  host="testedevelocidade.vivo.com.br:8080" />
<server url="http://speedtest.openx.com.br/speedtest/upload.php" lat="-23.5000" lon="-46.6167" name="Sao Paulo" country="Brazil" cc="BR" sponsor="Open X" id="5672"  url2="http://speedtest2.openx.com.br/speedtest/upload.php" host="speedtest.openx.com.br:8080" />
<server url="http://sp.nobreinternet.com.br/speedtest/speedtest/upload.php" lat="-23.5000" lon="-46.6167" name="Sao Paulo" country="Brazil" cc="BR" sponsor="Nobre Telecom" id="12996"  host="sp.nobreinternet.com.br:8080" />
<server url="http://speedtest.surubiminternet.com.br/speedtest/upload.php" lat="-23.5000" lon="-46.6167" name="São Paulo" country="Brazil" cc="BR" sponsor="SURUBIM INTERNET" id="12668"  host="speedtest.surubiminternet.com.br:8080" />
<server url="http://speedtest.4inet.net.br/speedtest/upload.php" lat="-23.5017" lon="-47.4581" name="Sorocaba" country="Brazil" cc="BR" sponsor="4INET SOROCABA LTDA" id="15564"  host="speedtest.4inet.net.br:8080" />
<server url="http://200.150.160.118/speedtest/upload.php" lat="-23.5111" lon="-46.8764" name="Barueri" country="Brazil" cc="BR" sponsor="MEGATELECOM TELECOMUNICAÇÕES" id="6661"  host="200.150.160.118:8080" />
<server url="http://vel-bre.tvalphaville.com.br/mini/speedtest/upload.php" lat="-23.5111" lon="-46.8764" name="Barueri" country="Brazil" cc="BR" sponsor="TV Alphaville" id="10802"  url2="http://vel-bre.selftv.com.br/speedtest/upload.php" host="vel-bre.tvalphaville.com.br:8080" />
<server url="http://speedtest.bwnet.com.br/speedtest/upload.php" lat="-23.5170" lon="-51.6872" name="Mandaguari" country="Brasil" cc="BR" sponsor="BWNet" id="11917"  host="speedtest.bwnet.com.br:8080" />
<server url="http://spts1.76telecom.com.br/speedtest/upload.php" lat="-23.5213" lon="-46.1859" name="Mogi das Cruzes" country="Brazil" cc="BR" sponsor="76 Telecom Telecomunicacao Ltda" id="9751"  url2="http://spts2.76telecom.com.br/speedtest/upload.php" host="spts1.76telecom.com.br:8080" />
<server url="http://speedtest.redebandalarga.net.br/speedtest/upload.php" lat="-23.5240" lon="-46.8411" name="Carapicuiba" country="Brazil" cc="BR" sponsor="Rede Banda Larga" id="14733"  host="speedtest.redebandalarga.net.br:8080" />
<server url="http://sp3.taquarinet.com.br/speedtest/upload.php" lat="-23.5264" lon="-49.2460" name="Taquarituba" country="Brazil" cc="BR" sponsor="TxFiber_TaquariNet" id="8594"  url2="http://sp4.taquarinet.com.br/speedtest/upload.php" host="sp3.taquarinet.com.br:8080" />
<server url="http://spdosa1.cabonnet.com.br/speedtest/upload.php" lat="-23.5286" lon="-46.7767" name="Osasco" country="Brazil" cc="BR" sponsor="Cabonnet Osasco" id="8761"  url2="http://spdosa2.cabonnet.com.br/speedtest/upload.php" host="spdosa1.cabonnet.com.br:8080" />
<server url="http://speedtest.thomesnet.com.br/speedtest/upload.php" lat="-23.5453" lon="-46.3116" name="Suzano" country="Brazil" cc="BR" sponsor="W2I TELECOM" id="15196"  host="speedtest.thomesnet.com.br:8080" />
<server url="http://velocimetro-spo.virtua.com.br/speedtest/upload.php" lat="-23.5505" lon="-46.6333" name="Sao Paulo" country="Brazil" cc="BR" sponsor="NET Serviços" id="16322"  host="velocimetro-spo.virtua.com.br:8080" />
<server url="http://brasaospeedtest01.level3.net/speedtest/upload.php" lat="-23.5505" lon="-46.6333" name="Sao Paulo" country="Brazil" cc="BR" sponsor="CenturyLink" id="16155"  host="brasaospeedtest01.level3.net:8080" />
<server url="http://speedtest.sp.upx.net.br/speedtest/upload.php" lat="-23.5505" lon="-46.6333" name="Sao Paulo" country="Brazil" cc="BR" sponsor="UPX Technologies" id="14754"  host="speedtest.sp.upx.net.br:8080" />
<server url="http://www.myfibernet.com.br/speedtest/upload.php" lat="-23.5677" lon="-49.9105" name="Quatigua" country="Brazil" cc="BR" sponsor="myfibernet" id="14056"  host="www.myfibernet.com.br:8080" />
<server url="http://speedtest.wfnet.net.br/speedtest/upload.php" lat="-23.5891" lon="-48.0488" name="Itapetininga" country="Brazil" cc="BR" sponsor="WFNET" id="9189"  url2="http://speedtest2.wfnet.net.br/speedtest/upload.php" host="speedtest.wfnet.net.br:8080" />
<server url="http://itapenet.com.br/speedtest/upload.php" lat="-23.5891" lon="-48.0488" name="Itapetininga" country="Brazil" cc="BR" sponsor="Zuknet Networks" id="8668"  url2="http://dns2.itapenet.com.br/speedtest/upload.php" host="itapenet.com.br:8080" />
<server url="http://speedtest.n-multimidia.com.br/speedtest/upload.php" lat="-23.6042" lon="-46.9194" name="Cotia" country="Brazil" cc="BR" sponsor="N-Multifibra" id="12474"  host="speedtest.n-multimidia.com.br:8080" />
<server url="http://speedtest.netinfobrasil.com.br/speedtest/upload.php" lat="-23.6048" lon="-49.6272" name="Salto Do Itarare" country="Brazil" cc="BR" sponsor="NET INFO BRASIL" id="10545"  url2="http://speedtest2.netinfobrasil.com.br/speedtest/upload.php" host="speedtest.netinfobrasil.com.br:8080" />
<server url="http://medidor.niponet.com.br/speedtest/upload.php" lat="-23.6167" lon="-45.4167" name="Caraguatatuba" country="Brazil" cc="BR" sponsor="Niponet Telecom" id="2814"  url2="http://189.127.208.4/speedtest/upload.php" host="medidor.niponet.com.br:8080" />
<server url="http://speedtest.mdanet.net.br/speedtest/upload.php" lat="-23.6443" lon="-47.5721" name="Salto de Pirapora" country="Brazil" cc="BR" sponsor="MDANET SERVICOS DE COMUNICACAO E INFORMATICA LTDA" id="11037"  host="speedtest.mdanet.net.br:8080" />
<server url="http://speedtest1.vipbrtelecom.com.br/speedtest/upload.php" lat="-23.6681" lon="-46.4617" name="Mauá" country="Brazil" cc="BR" sponsor="VIP Telecom" id="15384"  host="speedtest1.vipbrtelecom.com.br:8080" />
<server url="http://techcom.net.br/speedtest/upload.php" lat="-23.6681" lon="-46.4617" name="Maua" country="Brazil" cc="BR" sponsor="TechCom" id="15275"  host="techcom.net.br:8080" />
<server url="http://speedtest.steelweb.com.br/speedtest/upload.php" lat="-23.6681" lon="-46.4617" name="Mauá" country="Brazil" cc="BR" sponsor="SteelWeb" id="13537"  host="speedtest.steelweb.com.br:8080" />
<server url="http://speedtest.gserv.net/speedtest/upload.php" lat="-23.6681" lon="-46.4617" name="Maua" country="Brazil" cc="BR" sponsor="Globalnet" id="14241"  host="speedtest.gserv.net:8080" />
<server url="http://speedtest.worldnetbrasil.com.br/speedtest/upload.php" lat="-23.6742" lon="-46.5436" name="Santo Andre" country="BR" cc="BR" sponsor="R L A World Net Brasil LTDA" id="17212"  host="speedtest.worldnetbrasil.com.br:8080" />
<server url="http://portalfast.ddns.net/speedtest/upload.php" lat="-23.6742" lon="-46.5436" name="Santo Andre" country="Brazil" cc="BR" sponsor="F.N.C. Fast Net Comunicação" id="13346"  host="portalfast.ddns.net:8080" />
<server url="http://speedtest.powernetfibra.com.br/speedtest/upload.php" lat="-23.6818" lon="-46.6210" name="Diadema" country="BR" cc="BR" sponsor="PowerNet Telecom" id="16865"  host="speedtest.powernetfibra.com.br:8080" />
<server url="http://speedtest.shombra.com.br/speedtest/upload.php" lat="-23.6818" lon="-46.6210" name="Diadema" country="Brazil" cc="BR" sponsor="CTI" id="15031"  host="speedtest.shombra.com.br:8080" />
<server url="http://speedtest.k2network.com.br/speedtest/upload.php" lat="-23.6898" lon="-46.5648" name="Sao Bernardo do Campo" country="Brazil" cc="BR" sponsor="K2 NETWORK" id="16837"  host="speedtest.k2network.com.br:8080" />
<server url="http://speedtest.evoxtelecom.com.br/speedtest/upload.php" lat="-23.6898" lon="-46.5648" name="Sao Bernardo do Campo" country="Brazil" cc="BR" sponsor="EVOX TELECOM" id="15596"  host="speedtest.evoxtelecom.com.br:8080" />
<server url="http://speedtest.gtecnet.com.br/ookla/upload.php" lat="-23.7184" lon="-54.2156" name="Eldorado" country="Brazil" cc="BR" sponsor="GTec" id="10622"  url2="http://minhaconexao.gtecnet.com.br/ookla/upload.php" host="speedtest.gtecnet.com.br:8080" />
<server url="http://speed.turbovip.net.br/speedtest/upload.php" lat="-23.7649" lon="-53.8784" name="Sao Jorge do Patrocinio" country="Brazil" cc="BR" sponsor="TurboVIP Telecom" id="10950"  url2="http://sp2.turbovip.net.br/speedtest/upload.php" host="speed.turbovip.net.br:8080" />
<server url="http://www.qnet.com.br/speedtest/speedtest/upload.php" lat="-23.7658" lon="-53.3250" name="Umuarama" country="Brazil" cc="BR" sponsor="Qnet Telecom" id="2577"  url2="http://qnet.com.br/speedtest/speedtest/upload.php" host="www.qnet.com.br:8080" />
<server url="http://speedtest01.antw.com.br/upload.php" lat="-23.8333" lon="-50.1667" name="Ibaiti" country="Brazil" cc="BR" sponsor="Alien Network" id="7418"  url2="http://speedtest02.antw.com.br/upload.php" host="speedtest01.antw.com.br:8080" />
<server url="http://speedtest.franet.com.br/speedtest/upload.php" lat="-23.8572" lon="-50.4660" name="Figueira" country="Brazil" cc="BR" sponsor="Franet" id="11279"  host="speedtest.franet.com.br:8080" />
<server url="http://speedtest.arikinet.com.br/speedtest/upload.php" lat="-23.9561" lon="-46.3264" name="Santos" country="Brazil" cc="BR" sponsor="Arikinet Internet" id="8974"  url2="http://speedtest2.arikinet.com.br/speedtest/upload.php" host="speedtest.arikinet.com.br:8080" />
<server url="http://132.255.118.30/speedtest/speedtest/upload.php" lat="-23.9561" lon="-46.3264" name="Guaruja" country="Brazil" cc="BR" sponsor="Polotel Telecom" id="9270"  url2="http://speedtest.polotel.com.br/speedtest/speedtest/upload.php" host="132.255.118.30:8080" />
<server url="http://sp1.infologti.com.br/speedtest/upload.php" lat="-23.9607" lon="-46.3961" name="São Vicente" country="Brazil" cc="BR" sponsor="INFOLOG TI" id="10618"  url2="http://sp2.infologti.com.br/speedtest/upload.php" host="sp1.infologti.com.br:8080" />
<server url="http://speedtest2.prtelecom.com.br/speedtest/upload.php" lat="-23.9793" lon="-48.8769" name="Itapeva" country="BR" cc="BR" sponsor="PR Telecom" id="17506"  host="speedtest2.prtelecom.com.br:8080" />
<server url="http://rapidatelecomunicacoes.com.br/speedtest/upload.php" lat="-23.9793" lon="-48.8769" name="Itapeva" country="Brazil" cc="BR" sponsor="RAPIDA TELECOM" id="13609"  host="rapidatelecomunicacoes.com.br:8080" />
<server url="http://speed1.voxtech.com.br/speedtest/upload.php" lat="-24.0022" lon="-51.3256" name="Faxinal" country="Brazil" cc="BR" sponsor="VoxTech Telecom" id="12301"  host="speed1.voxtech.com.br:8080" />
<server url="http://speed1.netiontelecom.com.br/speedtest/speedtest/upload.php" lat="-24.0061" lon="-46.4028" name="Praia Grande" country="Brazil" cc="BR" sponsor="Netion Solucoes" id="2494"  url2="http://speed2.netiontelecom.com.br/speedtest/speedtest/upload.php" host="speed1.netiontelecom.com.br:8080" />
<server url="http://mariluznet.net.br/speedtest/upload.php" lat="-24.0074" lon="-53.1479" name="Mariluz" country="Brazil" cc="BR" sponsor="MariluzNet Telecomunicações" id="11240"  host="mariluznet.net.br:8080" />
<server url="http://speedtest.polettotelecom.com.br/speedtest/upload.php" lat="-24.0218" lon="-50.4722" name="Curiúva" country="BR" cc="BR" sponsor="POLETTO TELECOM" id="17147"  host="speedtest.polettotelecom.com.br:8080" />
<server url="http://speedtest.cpm.liguetelecom.net/speedtest/upload.php" lat="-24.0500" lon="-52.3667" name="Campo Mourao" country="Brazil" cc="BR" sponsor="LigueTelecom" id="3708"  host="speedtest.cpm.liguetelecom.net:8080" />
<server url="http://sp1.infonetsolucoes.com.br/speedtest/upload.php" lat="-24.0840" lon="-54.2565" name="Guaira" country="Brazil" cc="BR" sponsor="INFONET INFORMATICA E TELECOMUNICACOES LTDA" id="9666"  url2="http://sp2.infonetsolucoes.com.br/speedtest/upload.php" host="sp1.infonetsolucoes.com.br:8080" />
<server url="http://speedtest.dwhost.com.br/speedtest/upload.php" lat="-24.0876" lon="-46.6289" name="Mongagua" country="Brazil" cc="BR" sponsor="DW Host" id="5169"  url2="http://mongagua.dwhost.com.br/speedtest/upload.php" host="speedtest.dwhost.com.br:8080" />
<server url="http://ookla1.satsoft.co.za/speedtest/upload.php" lat="-24.1809" lon="29.0139" name="Mokopane" country="South Africa" cc="ZA" sponsor="Satellite Software" id="9534"  url2="http://ookla2.satsoft.co.za/speedtest/upload.php" host="ookla1.satsoft.co.za:8080" />
<server url="http://sp1.eteccnet.com.br/speedtest/upload.php" lat="-24.1818" lon="-46.7850" name="Itanhaem" country="Brazil" cc="BR" sponsor="ETECC NET BANDA LARGA" id="9075"  url2="http://sp2.eteccnet.com.br/speedtest/upload.php" host="sp1.eteccnet.com.br:8080" />
<server url="http://speedtest1.visaonet.com.br/speedtest/upload.php" lat="-24.1850" lon="-53.0278" name="Goioere" country="Brazil" cc="BR" sponsor="VisãoNet Telecom" id="5547"  url2="http://speedtest2.visaonet.com.br/speedtest/upload.php" host="speedtest1.visaonet.com.br:8080" />
<server url="http://speedtest1.qualityinternet.com.br/speedtest/upload.php" lat="-24.1850" lon="-53.0278" name="Goioerê" country="Brazil" cc="BR" sponsor="QualityNet" id="10428"  url2="http://speedtest2.qualityinternet.com.br/speedtest/upload.php" host="speedtest1.qualityinternet.com.br:8080" />
<server url="http://www.fiberway.com.ar/speedtest/upload.php" lat="-24.1857" lon="-65.2994" name="San Salvador de Jujuy" country="Argentina" cc="AR" sponsor="Fiberway" id="13694"  host="www.fiberway.com.ar:8080" />
<server url="http://servidorteste.mottanet.com.br/speedtest/upload.php" lat="-24.2398" lon="-49.4059" name="Senges" country="Brazil" cc="BR" sponsor="Mottanet" id="14889"  host="servidorteste.mottanet.com.br:8080" />
<server url="http://speedtest.tempusnet.com.py/speedtest/upload.php" lat="-24.2482" lon="-54.7577" name="Katuete" country="Paraguay" cc="PY" sponsor="TempusNet" id="9685"  url2="http://speedtest2.tempusnet.com.py/speedtest/upload.php" host="speedtest.tempusnet.com.py:8080" />
<server url="http://speedtest.mrtelecom2.com.br/speedtest/upload.php" lat="-24.2742" lon="-53.3259" name="Formosa do Oeste" country="Brazil" cc="BR" sponsor="MR Telecom" id="11379"  host="speedtest.mrtelecom2.com.br:8080" />
<server url="http://speedtest7.opcaonet.com.br/speedtest/upload.php" lat="-24.2808" lon="-53.8671" name="Palotina" country="Brazil" cc="BR" sponsor="Opcao Telecom" id="14202"  host="speedtest7.opcaonet.com.br:8080" />
<server url="http://speedtest.amtnet.net.br/upload.aspx" lat="-24.3171" lon="-52.5276" name="Mambore" country="Brazil" cc="BR" sponsor="AM Turbonet" id="9673"  url2="http://speedtest2.amtnet.net.br/upload.aspx" host="speedtest.amtnet.net.br:8080" />
<server url="http://www.computechtelecom.com.br/speed-test/upload.php" lat="-24.3804" lon="-53.3865" name="Jesuitas" country="Brazil" cc="BR" sponsor="CompuTech Telecom CvpNet" id="13099"  host="www.computechtelecom.com.br:8080" />
<server url="http://sp1.ncenternet.com.br/speedtest/upload.php" lat="-24.4067" lon="-53.5142" name="Assis Chateaubriand" country="Brazil" cc="BR" sponsor="NEWCENTER TELECOM" id="9114"  url2="http://sp2.ncenternet.com.br/speedtest/upload.php" host="sp1.ncenternet.com.br:8080" />
<server url="http://www.fusaonet.com.br/speedtest/upload.php" lat="-24.4067" lon="-53.5142" name="Assis Chateaubriand" country="Brasil" cc="BR" sponsor="FusaoNet Comunicações" id="11097"  host="www.fusaonet.com.br:8080" />
<server url="http://speedtest11.opcaonet.com.br/speedtest/upload.php" lat="-24.4204" lon="-53.8291" name="Maripa" country="Brazil" cc="BR" sponsor="Opcao Telecom" id="13195"  host="speedtest11.opcaonet.com.br:8080" />
<server url="http://speedtest13.opcaonet.com.br/speedtest/upload.php" lat="-24.4314" lon="-54.1938" name="Mercedes" country="Brazil" cc="BR" sponsor="Opcao Telecom" id="13196"  host="speedtest13.opcaonet.com.br:8080" />
<server url="http://speedtest5.opcaonet.com.br/speedtest/upload.php" lat="-24.4698" lon="-53.9558" name="Nova Santa Rosa" country="Brazil" cc="BR" sponsor="Opcao Telecom" id="9178"  url2="http://speedtest6.opcaonet.com.br/speedtest/upload.php" host="speedtest5.opcaonet.com.br:8080" />
<server url="http://sp1.infovaletelecom.com.br/speedtest/upload.php" lat="-24.5002" lon="-47.8448" name="Registro" country="Brazil" cc="BR" sponsor="Infovale Telecom LTDA-EPP" id="9704"  url2="http://speedyteste2.infovaletelecom.com.br/speedtest/upload.php" host="sp1.infovaletelecom.com.br:8080" />
<server url="http://velocidade.ubt.vibenet.com.br/speedtest/upload.php" lat="-24.5403" lon="-52.9946" name="Ubirata" country="Brazil" cc="BR" sponsor="Vibenet" id="14191"  host="velocidade.ubt.vibenet.com.br:8080" />
<server url="http://velocidade.ubt.vibenet.com.br/speedtest/upload.php" lat="-24.5404" lon="-52.9947" name="Ubirata" country="Brazil" cc="BR" sponsor="Vibenet Group" id="10279"  url2="http://velocidade.ubt.raidnet.com.br/speedtest/upload.php" host="velocidade.ubt.vibenet.com.br:8080" />
<server url="http://speedtest.sinet.com.py/speedtest/upload.php" lat="-24.5405" lon="-54.8291" name="Nueva Esperanza" country="Paraguay" cc="PY" sponsor="Si Net" id="13927"  host="speedtest.sinet.com.py:8080" />
<server url="http://speedtest3.opcaonet.com.br/speedtest/upload.php" lat="-24.5569" lon="-54.0568" name="Marechal Candido Rondon" country="Brazil" cc="BR" sponsor="Opcao Telecom" id="8999"  url2="http://speedtest4.opcaonet.com.br/speedtest/upload.php" host="speedtest3.opcaonet.com.br:8080" />
<server url="http://speedtest17.opcaonet.com.br/speedtest/upload.php" lat="-24.5756" lon="-53.9763" name="Quatro Pontes" country="Brazil" cc="BR" sponsor="Opcao Telecom" id="13198"  host="speedtest17.opcaonet.com.br:8080" />
<server url="http://sp01.vipnetpr.com.br/speedtest/upload.php" lat="-24.6283" lon="-54.2264" name="Pato Bragado" country="Brazil" cc="BR" sponsor="VIPNET" id="10707"  url2="http://sp02.vipnetpr.com.br/speedtest/upload.php" host="sp01.vipnetpr.com.br:8080" />
<server url="http://www.speedtest.co.bw/speedtest/upload.php" lat="-24.6581" lon="25.9122" name="Gaborone" country="Botswana" cc="BW" sponsor="Botswana Telecom" id="944"  url2="http://btc.speedtest.co.bw/speedtest/upload.php" host="www.speedtest.co.bw:8080" />
<server url="http://lightning.bofinet.co.bw/speedtest/upload.php" lat="-24.6581" lon="25.9122" name="Gaborone" country="Botswana" cc="BW" sponsor="Botswana Fibre Networks" id="9915"  url2="http://legadima.bofinet.co.bw/speedtest/upload.php" host="lightning.bofinet.co.bw:8080" />
<server url="http://velocidade.deltatele.com.br/speedtest/upload.php" lat="-24.6938" lon="-53.3690" name="Cafelandia" country="Brazil" cc="BR" sponsor="DeltaTelecom" id="4979"  url2="http://speedtest.deltatele.com.br/speedtest/upload.php" host="velocidade.deltatele.com.br:8080" />
<server url="http://speedtest9.opcaonet.com.br/speedtest/upload.php" lat="-24.7251" lon="-53.7418" name="Toledo" country="Brazil" cc="BR" sponsor="Opção Telecom" id="13194"  host="speedtest9.opcaonet.com.br:8080" />
<server url="http://slave.fusaonet.com.br/speedtest/upload.php" lat="-24.7252" lon="-53.7419" name="Toledo" country="Brasil" cc="BR" sponsor="FusaoNet Toledo" id="16304"  host="slave.fusaonet.com.br:8080" />
<server url="http://velocidade.oesteline.com.br/speedtest/upload.php" lat="-24.7252" lon="-53.7419" name="Toledo" country="Brazil" cc="BR" sponsor="OesteLine Telecom" id="8958"  url2="http://speedtest.oesteline.com.br/speedtest/upload.php" host="velocidade.oesteline.com.br:8080" />
<server url="http://sp3.express.com.ar/speedtest/upload.php" lat="-24.7821" lon="-65.4232" name="Salta" country="Argentina" cc="AR" sponsor="Express - Decoteve S.A" id="14279"  host="sp3.express.com.ar:8080" />
<server url="http://speedtest.gtv.tv.br/speedtest/upload.php" lat="-24.9558" lon="-53.4550" name="Cascavel" country="BR" cc="BR" sponsor="Speedtest GTV" id="17435"  host="speedtest.gtv.tv.br:8080" />
<server url="http://home.certto.com.br/speed/speedtest/upload.php" lat="-24.9558" lon="-53.4550" name="Cascavel" country="Brazil" cc="BR" sponsor="CERTTO TELECOM" id="1657"  host="home.certto.com.br:8080" />
<server url="http://speedtest.opcaonet.com.br/speedtest/upload.php" lat="-24.9558" lon="-53.4550" name="Cascavel" country="Brazil" cc="BR" sponsor="Opcao Telecom" id="4461"  host="speedtest.opcaonet.com.br:8080" />
<server url="http://speedtest.kdm.com.py/speedtest/upload.php" lat="-24.9734" lon="-54.9143" name="San Alberto" country="Paraguay" cc="PY" sponsor="KDMPY Telecom" id="13619"  host="speedtest.kdm.com.py:8080" />
<server url="http://mail.intercommtech.com.br/speedtest/upload.php" lat="-25.0833" lon="-50.1500" name="Ponta Grossa" country="Brazil" cc="BR" sponsor="Intercomm Serviços de Internet - LTDA" id="2987"  url2="http://www.intercommtech.com.br/speedtest/upload.php" host="speedtest.intercommtech.com.br:8080" />
<server url="http://speedtest.uepg.br/upload.php" lat="-25.0833" lon="-50.1500" name="Ponta Grossa" country="BR" cc="BR" sponsor="Universidade Estadual de Ponta Grossa" id="17487"  host="speedtest.uepg.br:8080" />
<server url="http://speedtest1-pdt.visaonet.com.br/speedtest/upload.php" lat="-25.2000" lon="-50.9500" name="Prudentopolis" country="Brazil" cc="BR" sponsor="VisaoNet Telecom" id="5624"  url2="http://speedtest2-pdt.visaonet.com.br/speedtest/upload.php" host="speedtest1-pdt.visaonet.com.br:8080" />
<server url="http://speedtest.claro.com.py/speedtest/upload.php" lat="-25.2637" lon="-57.5759" name="Asuncion" country="Paraguay" cc="PY" sponsor="Claro" id="14941"  host="speedtest.claro.com.py:8080" />
<server url="http://speedtest.tigo.com.py/speedtest/upload.php" lat="-25.2667" lon="-57.6667" name="Asuncion" country="Paraguay" cc="PY" sponsor="Telecel SA" id="1480"  host="speedtest.tigo.com.py:8080" />
<server url="http://sp1.teisa.com.py/speedtest/upload.php" lat="-25.2667" lon="-57.6667" name="Asuncion" country="Paraguay" cc="PY" sponsor="TEISA" id="6776"  url2="http://sp2.teisa.com.py/speedtest/upload.php" host="sp1.teisa.com.py:8080" />
<server url="http://speedtest1.personal.com.py/speedtest/upload.php" lat="-25.2667" lon="-57.6667" name="Asuncion" country="Paraguay" cc="PY" sponsor="Núcleo S.A., Personal" id="2830"  url2="http://speedtest2.personal.com.py/speedtest/upload.php" host="speedtest1.personal.com.py:8080" />
<server url="http://www.copaco.com.py/speedtest/speedtest/upload.php" lat="-25.2667" lon="-57.6667" name="Asuncion" country="Paraguay" cc="PY" sponsor="COPACO S.A." id="2619"  url2="http://www3.copaco.com.py/speedtest/speedtest/upload.php" host="copaco.com.py:8080" />
<server url="http://speedtest.medianeira.com.br/speedtest/upload.php" lat="-25.2950" lon="-54.0939" name="Medianeira" country="Brazil" cc="BR" sponsor="Portal Medianeira" id="16389"  host="speedtest.medianeira.com.br:8080" />
<server url="http://speedtest.medianeira.com.br/speedtest/upload.php" lat="-25.2950" lon="-54.0939" name="Medianeira" country="Brazil" cc="BR" sponsor="Portal Medianeira LTDA" id="7140"  url2="http://speedtest2.medianeira.com.br/speedtest2/upload.php" host="dns.medianeira.com.br:8080" />
<server url="http://speed.innet.com.br/speedtest/upload.php" lat="-25.3496" lon="-54.2410" name="Sao Miguel Do Iguacu" country="Brazil" cc="BR" sponsor="InNET Internet" id="7726"  url2="http://speed1.innet.com.br/speedtest/upload.php" host="speed.innet.com.br:8080" />
<server url="http://speedtest.datafibra.com.br/speedtest/upload.php" lat="-25.3833" lon="-51.4500" name="Guarapuava" country="Brazil" cc="BR" sponsor="Data Fibra Telecom" id="7862"  url2="http://velocidade.datafibra.com.br/speedtest/upload.php" host="speedtest.datafibra.com.br:8080" />
<server url="http://www.almix.com.br/speedtest/upload.php" lat="-25.3833" lon="-51.4500" name="Guarapuava" country="Brazil" cc="BR" sponsor="Almix Internet" id="7351"  url2="http://www.almix.com.br/speedtest2/upload.php" host="www.almix.com.br:8080" />
<server url="http://speedtest.copel.net/speedtest/upload.php" lat="-25.4167" lon="-49.2500" name="Curitiba" country="Brazil" cc="BR" sponsor="COPEL TELECOM" id="942"  url2="http://200.195.144.42/speedtest/upload.php" host="speedtest.copel.net:8080" />
<server url="http://speed.novafibratelecom.com.br/new-fast-fiber/upload.php" lat="-25.4167" lon="-49.2500" name="Curitiba" country="BR" cc="BR" sponsor="Nova Fibra Telecom - Grupo ABL System" id="17483"  host="speed.novafibratelecom.com.br:8080" />
<server url="http://spetstcta01.timbrasil.com.br/speedtest/upload.php" lat="-25.4167" lon="-49.2500" name="Curitiba" country="Brazil" cc="BR" sponsor="TIM Brasil" id="12554"  host="spetstcta01.timbrasil.com.br:8080" />
<server url="http://sp1.idsul.com.br/speedtest/upload.php" lat="-25.4167" lon="-49.2500" name="Curitiba" country="Brazil" cc="BR" sponsor="IDSUL Provedor de Internet" id="12271"  host="sp1.idsul.com.br:8080" />
<server url="http://speedtest.terres.net.br/upload.php" lat="-25.4189" lon="-53.1808" name="Tres Barras do Parana" country="Brazil" cc="BR" sponsor="Terres Telecom" id="6104"  url2="http://speedtest2.terres.net.br/upload.php" host="speedtest.terres.net.br:8080" />
<server url="http://10002.velocidadenet.com.br/upload.php" lat="-25.4244" lon="-49.2654" name="Curitiba" country="Brazil" cc="BR" sponsor="Fiberone" id="14422"  host="10002.velocidadenet.com.br:8080" />
<server url="http://speedtest.directwifi.com.br/speedtest/upload.php" lat="-25.4244" lon="-49.2654" name="Curitiba" country="Brazil" cc="BR" sponsor="Direct Wifi" id="15438"  host="speedtest.directwifi.com.br:8080" />
<server url="http://speedtest.i9fibra.net.br/speedtest/upload.php" lat="-25.4676" lon="-51.9369" name="Candoi" country="Brazil" cc="BR" sponsor="i9 Fibra Telecomunicações" id="13107"  host="speedtest.i9fibra.net.br:8080" />
<server url="http://speedtest.complexa.net.br/speedtest/upload.php" lat="-25.5071" lon="-48.5187" name="Paranagua" country="Brazil" cc="BR" sponsor="Complexa Internet" id="14943"  host="speedtest.complexa.net.br:8080" />
<server url="http://sp1.live.psi.br/speedtest/upload.php" lat="-25.5162" lon="-54.5854" name="Foz do Iguacu" country="Brazil" cc="BR" sponsor="Live Telecom" id="9956"  url2="http://sp2.live.psi.br/speedtest/upload.php" host="sp1.live.psi.br:8080" />
<server url="http://teste.ifoz.com.br/ookla/upload.php" lat="-25.5162" lon="-54.5854" name="Foz Do IguaçU" country="Brazil" cc="BR" sponsor="iFoz Internet" id="15996"  host="ns2.ifoz.com.br:8080" />
<server url="http://st.planetclick.org/upload.php" lat="-25.5162" lon="-54.5854" name="Foz do Iguaçu" country="Brazil" cc="BR" sponsor="Planet Click" id="7222"  url2="http://st1.planetclick.org/upload.php" host="st.planetclick.org:8080" />
<server url="http://speed2.linuxbras.com.br/speedtest/upload.php" lat="-25.5166" lon="-48.5230" name="Paranagua" country="Brazil" cc="BR" sponsor="Linuxbras Soluções em Conectividade Ltda." id="9978"  url2="http://speed2.linuxbras.net.br/speedtest/upload.php" host="speed2.linuxbras.com.br:8080" />
<server url="http://test1.giganet.net.py/speedtest/upload.php" lat="-25.5167" lon="-54.6167" name="Ciudad del Este" country="Paraguay" cc="PY" sponsor="GigaNET" id="7096"  url2="http://test2.giganet.net.py/speedtest/upload.php" host="test1.giganet.net.py:8080" />
<server url="http://speedtest.neo.com.py/speedtest/upload.php" lat="-25.5167" lon="-54.6167" name="Ciudad Del Este" country="PY" cc="PY" sponsor="NEO TELECOM" id="17123"  host="speedtest.neo.com.py:8080" />
<server url="http://st-cde.vengaavolarcon.link/speedtest/upload.php" lat="-25.5167" lon="-54.6167" name="Ciudad del Este" country="Paraguay" cc="PY" sponsor="LINK Telecom" id="5494"  url2="http://st1-cde.vengaavolarcon.link/speedtest/upload.php" host="st-cde.vengaavolarcon.link:8080" />
<server url="http://speedtest.pc-tronics.com.ar/speedtest/upload.php" lat="-25.6710" lon="-54.0487" name="Comandante Andresito" country="Argentina" cc="AR" sponsor="Schroder Dardo Rene / Pc Tronics - Soluciones Informáticas" id="11167"  host="speedtest.pc-tronics.com.ar:8080" />
<server url="http://www.rline.com.br/speedtest/speedtest/upload.php" lat="-25.7217" lon="-53.7656" name="Planalto" country="Brazil" cc="BR" sponsor="Rline Telecom Ltda." id="6263"  url2="http://www.rline.com.br/speedtest/speedtest2/upload.php" host="www.rline.com.br:8080" />
<server url="http://speedtest.psi.vodacombusiness.co.za/speedtest/upload.php" lat="-25.7256" lon="28.2439" name="Pretoria" country="South Africa" cc="ZA" sponsor="Vodacom Business" id="1284"  url2="http://speedtest2.psi.vodacombusiness.co.za/speedtest/upload.php" host="speedtest.psi.vodacombusiness.co.za:8080" />
<server url="http://speedtest-pta.cellc.co.za/upload.php" lat="-25.7256" lon="28.2439" name="Pretoria" country="South Africa" cc="ZA" sponsor="Cell C" id="6158"  url2="http://speedtest-pta.cellc.co.za/speedtest/upload.php" host="speedtest-pta.cellc.co.za:8080" />
<server url="http://speedtest.projectisizwe.org/speedtest/upload.php" lat="-25.7256" lon="28.2439" name="Pretoria" country="South Africa" cc="ZA" sponsor="Project Isizwe" id="9355"  url2="http://speedtest2.projectisizwe.org/speedtest/upload.php" host="speedtest.projectisizwe.org:8080" />
<server url="http://speedtest.bronbergwisp.co.za/upload.php" lat="-25.7256" lon="28.2439" name="Pretoria" country="South Africa" cc="ZA" sponsor="Bronberg Connect" id="15993"  host="speedtest.bronbergwisp.co.za:8080" />
<server url="http://speedtest.ittx.co.za/speedtest/upload.php" lat="-25.7478" lon="28.2292" name="Pretoria" country="South Africa" cc="ZA" sponsor="ITTX Telecoms" id="14157"  host="speedtest.ittx.co.za:8080" />
<server url="http://lucasnet.net/upload.php" lat="-25.8223" lon="-53.7439" name="Pérola D'Oeste" country="Brazil" cc="BR" sponsor="LucasNet" id="13504"  host="lucasnet.net:8080" />
<server url="http://ooklaserver1.verenet.inf.br/upload.php" lat="-25.8479" lon="-57.4518" name="Vere" country="Brazil" cc="BR" sponsor="VereNET Telecom" id="16043"  host="ooklaserver.verenet.inf.br:8080" />
<server url="http://speedtest.wiip.com.br/speedtest/upload.php" lat="-25.8500" lon="-52.5000" name="Chopinzinho" country="Brazil" cc="BR" sponsor="WIIP Telecom" id="4814"  url2="http://velocimetro.wiip.com.br/speedtest/upload.php" host="speedtest.wiip.com.br:8080" />
<server url="http://stjhb.clearaccess.co.za/speedtest/upload.php" lat="-25.8603" lon="28.1894" name="Centurion" country="South Africa" cc="ZA" sponsor="Clear Access" id="13916"  host="stjhb.clearaccess.co.za:8080" />
<server url="http://sunshinecoast.qld.speedtest.optusnet.com.au/speedtest/upload.php" lat="-25.8833" lon="152.5500" name="Sunshine Coast" country="Australia" cc="AU" sponsor="Optus" id="10443"  url2="http://www.sunshinecoast.qld.speedtest.optusnet.com.au/speedtest/upload.php" host="sunshinecoast.qld.speedtest.optusnet.com.au:8080" />
<server url="http://suporte.ampernet.com.br/speedtest/speedtest/upload.php" lat="-25.9170" lon="-53.4711" name="Ampere" country="Brazil" cc="BR" sponsor="Ampernet Telecom" id="2235"  url2="http://www.ampernet.com.br/speedtest/speedtest/upload.php" host="suporte.ampernet.com.br:8080" />
<server url="http://speedtest.vm.co.mz/speedtest/upload.php" lat="-25.9667" lon="32.5833" name="Maputo" country="Mozambique" cc="MZ" sponsor="Vodacom Mozambique" id="2280"  url2="http://41.76.145.10/speedtest/upload.php" host="speedtest.vm.co.mz:8080" />
<server url="http://speedtest.tvcabo.mz/speedtest/upload.php" lat="-25.9667" lon="32.5833" name="Maputo" country="Mozambique" cc="MZ" sponsor="TvCabo Mozambique" id="1242"  host="speedtest.tvcabo.mz:8080" />
<server url="http://speedtest1.movitel.co.mz/speedtest/upload.php" lat="-25.9667" lon="32.5833" name="Maputo" country="Mozambique" cc="MZ" sponsor="Movitel" id="6896"  url2="http://speedtest2.movitel.co.mz/speedtest/upload.php" host="speedtest1.movitel.co.mz:8080" />
<server url="http://speedtest.clubnet.co.mz/upload.php" lat="-25.9667" lon="32.5833" name="Maputo" country="Mozambique" cc="MZ" sponsor="Moztel-ClubNet" id="3367"  url2="http://speedteste.clubnet.co.mz/upload.php" host="speedtest.clubnet.co.mz:8080" />
<server url="http://196.10.148.35/speedtest/speedtest/upload.php" lat="-25.9667" lon="32.5833" name="Maputo" country="Mozambique" cc="MZ" sponsor="Webmasters Lda" id="5281"  url2="http://196.10.148.35/speedtest2/speedtest/upload.php" host="196.10.148.35:8080" />
<server url="http://sl-01-mpm.mz.seacomnet.com/upload.php" lat="-25.9667" lon="32.5833" name="Maputo" country="Mozambique" cc="MZ" sponsor="Seacom Ltd" id="5896"  url2="http://speedtest-mpm.seacom.mu/upload.php" host="sl-01-mpm.mz.seacomnet.com:8080" />
<server url="http://speedtest.sol.com.py/speedtest/upload.php" lat="-25.9833" lon="-54.9500" name="Santa Rita" country="Paraguay" cc="PY" sponsor="Sol Internet" id="3773"  host="speedtest.sol.com.py:8080" />
<server url="http://speedtest.africainx.net/speedtest/upload.php" lat="-25.9992" lon="28.1264" name="Midrand" country="South Africa" cc="ZA" sponsor="AfricaINX" id="4086"  url2="http://gp-mr-svr-vm-speedtest.africainx.net/speedtest/upload.php" host="speedtest.africainx.net:8080" />
<server url="http://speedtest1.jennyme.co.za/speedtest/upload.php" lat="-25.9992" lon="28.1264" name="Midrand" country="South Africa" cc="ZA" sponsor="Jenny Internet" id="6279"  url2="http://speedtest2.jennyme.co.za/speedtest/upload.php" host="speedtest1.jennyme.co.za:8080" />
<server url="http://ookla1.cipherwave.co.za/upload.php" lat="-25.9992" lon="28.1264" name="Midrand" country="South Africa" cc="ZA" sponsor="CipherWave" id="7982"  url2="http://ookla2.cipherwave.co.za/upload.php" host="ookla1.cipherwave.co.za:8080" />
<server url="http://speedtest.beltraonet.com.br/speedtest/upload.php" lat="-26.0811" lon="-53.0550" name="Francisco Beltrao" country="Brazil" cc="BR" sponsor="Beltraonet Telecom" id="12442"  host="speedtest.beltraonet.com.br:8080" />
<server url="http://sp1.deztelecom.net.br/speedtest/upload.php" lat="-26.0833" lon="-53.0500" name="Dois Vizinhos" country="Brazil" cc="BR" sponsor="DEZ TELECOM" id="5810"  url2="http://sp2.deztelecom.net.br/speedtest/upload.php" host="sp1.deztelecom.net.br:8080" />
<server url="http://clicknetinternet.com.br/speedtest/upload.php" lat="-26.0833" lon="-53.0500" name="Dois Vizinhos" country="Brazil" cc="BR" sponsor="Clicknet Internet" id="11897"  host="clicknetinternet.com.br:8080" />
<server url="http://speedtest.nl.mtn.co.za/upload.php" lat="-26.1201" lon="27.9015" name="Roodepoort" country="South Africa" cc="ZA" sponsor="MTN SA" id="12463"  host="speedtest.nl.mtn.co.za:8080" />
<server url="http://rosebank.spdtst.saix.net/speedtest/upload.php" lat="-26.1453" lon="28.0406" name="Randburg" country="South Africa" cc="ZA" sponsor="Telkom SA (SAIX)" id="1879"  host="rosebank.spdtst.saix.net:8080" />
<server url="http://sp1.cisp.co.za/speedtest/upload.php" lat="-26.1453" lon="28.0406" name="Randburg" country="South Africa" cc="ZA" sponsor="Cool Ideas" id="6591"  url2="http://sp2.cisp.co.za/speedtest/upload.php" host="sp1.cisp.co.za:8080" />
<server url="http://speedtest.mtnbusiness.co.za/speedtest/upload.php" lat="-26.1453" lon="28.0406" name="Randburg" country="South Africa" cc="ZA" sponsor="MTN SA" id="1743"  url2="http://speedtest2.mtnbusiness.co.za/speedtest/upload.php" host="speedtest.mtnbusiness.co.za:8080" />
<server url="http://speedtest.newcomp.inf.br/speedtest/upload.php" lat="-26.1585" lon="-51.5549" name="Bituruna" country="Brazil" cc="BR" sponsor="Newcomp Internet LTDA" id="9006"  url2="http://server1.newcomp.inf.br/speedtest/upload.php" host="speedtest.newcomp.inf.br:8080" />
<server url="http://speedtest.pcsp.co.za/speedtest/upload.php" lat="-26.1717" lon="28.1327" name="Bedfordview" country="South Africa" cc="ZA" sponsor="PowerCloud SP (PTY) LTD" id="16126"  host="speedtest.pcsp.co.za:8080" />
<server url="http://speedtest.wifiwave.co.za/speedtest/upload.php" lat="-26.2041" lon="28.0473" name="Johannesburg" country="South Africa" cc="ZA" sponsor="WiFiWave (PTY) LTD" id="14786"  host="speedtest.wifiwave.co.za:8080" />
<server url="http://speedtest.mtb.vodacombusiness.co.za/speedtest/upload.php" lat="-26.2044" lon="28.0456" name="Johannesburg" country="South Africa" cc="ZA" sponsor="Vodacom" id="1440"  url2="http://speedtest2.mtb.vodacombusiness.co.za/speedtest/upload.php" host="speedtest.mtb.vodacombusiness.co.za:8080" />
<server url="http://speedtest.cellc.co.za/speedtest/upload.php" lat="-26.2044" lon="28.0456" name="Johannesburg" country="South Africa" cc="ZA" sponsor="Cell C" id="1620"  host="speedtest.cellc.co.za:8080" />
<server url="http://speedtest.rb.mtn.co.za/speedtest/upload.php" lat="-26.2044" lon="28.0456" name="Johannesburg" country="South Africa" cc="ZA" sponsor="MTN SA" id="2990"  url2="http://speedtest2.rb.mtn.co.za/speedtest/upload.php" host="speedtest.rb.mtn.co.za:8080" />
<server url="http://sp1.wiru.co.za/upload.php" lat="-26.2044" lon="28.0456" name="Johannesburg" country="South Africa" cc="ZA" sponsor="Wirulink" id="9227"  url2="http://sp2.wiru.co.za/upload.php" host="154.66.153.6:80" />
<server url="http://spdtest-teraco.afrihost.com/speedtest/upload.php" lat="-26.2044" lon="28.0456" name="Johannesburg" country="South Africa" cc="ZA" sponsor="Afrihost" id="12286"  host="spdtest-teraco.afrihost.com:8080" />
<server url="http://ookla1.reflex.co.za/upload.aspx" lat="-26.2044" lon="28.0456" name="Johannesburg" country="South Africa" cc="ZA" sponsor="Reflex Solutions" id="6246"  url2="http://ookla2.reflex.co.za/upload.aspx" host="ookla1.reflex.co.za:8080" />
<server url="http://sp1.bitco.co.za/speedtest/upload.aspx" lat="-26.2044" lon="28.0456" name="Johannesburg" country="South Africa" cc="ZA" sponsor="BitCo" id="10990"  host="sp1.bitco.co.za:8080" />
<server url="http://speedtest.jhb.mweb.co.za/speedtest/upload.php" lat="-26.2044" lon="28.0456" name="Johannesburg" country="South Africa" cc="ZA" sponsor="MWEB Connect" id="1817"  host="speedtest.jhb.mweb.co.za:8080" />
<server url="http://speedtest.alwayson.co.za/speedtest/upload.php" lat="-26.2044" lon="28.0456" name="Johannesburg" country="South Africa" cc="ZA" sponsor="AlwaysOn" id="8732"  url2="http://ao-speed2.alwayson.co.za/speedtest/upload.php" host="speedtest.alwayson.co.za:8080" />
<server url="http://speedtest.jhb.webafrica.co.za/speedtest/upload.php" lat="-26.2044" lon="28.0456" name="Johannesburg" country="South Africa" cc="ZA" sponsor="Webafrica" id="10312"  url2="http://speed1.jhb.webafrica.co.za/speedtest/upload.php" host="speedtest.jhb.webafrica.co.za:8080" />
<server url="http://speedtest-jhb.voxtelecom.co.za/upload.php" lat="-26.2044" lon="28.0456" name="Johannesburg" country="South Africa" cc="ZA" sponsor="Vox Telecom" id="7254"  url2="http://speedtest-jhb1.voxtelecom.co.za/upload.php" host="speedtest-jhb.voxtelecom.co.za:8080" />
<server url="http://speedtest.wbs.co.za/speedtest/upload.php" lat="-26.2044" lon="28.0456" name="Johannesburg" country="South Africa" cc="ZA" sponsor="Multisource Telecoms" id="11310"  host="speedtest.wbs.co.za:8080" />
<server url="http://jnb1.wiocc.net/speedtest/upload.php" lat="-26.2044" lon="28.0456" name="Johannesburg" country="South Africa" cc="ZA" sponsor="WIOCC" id="12109"  host="jnb1.wiocc.net:8080" />
<server url="http://sp1.skywire.co.za/speedtest/upload.php" lat="-26.2044" lon="28.0456" name="Johannesburg" country="South Africa" cc="ZA" sponsor="Skywire Technologies" id="12088"  host="sp1.skywire.co.za:8080" />
<server url="http://speedtestupload.activefibre.co.za/upload.php" lat="-26.2044" lon="28.0456" name="Johannesburg" country="South Africa" cc="ZA" sponsor="Active Fibre" id="15532"  host="speedtestupload.activefibre.co.za:8080" />
<server url="http://spdtst.jb.lycadigital.co.za/speedtest/upload.php" lat="-26.2044" lon="28.0456" name="Johannesburg" country="South Africa" cc="ZA" sponsor="Lyca Digital" id="13780"  host="spdtst.jb.lycadigital.co.za:8080" />
<server url="http://sl-01-jnb.za.seacomnet.com/upload.php" lat="-26.2044" lon="28.0456" name="Johannesburg" country="South Africa" cc="ZA" sponsor="Seacom Ltd" id="5889"  url2="http://speedtest-jnb.seacom.mu/upload.php" host="sl-01-jnb.za.seacomnet.com:8080" />
<server url="http://speedtest.toquefibra.com.br/speedtest/upload.php" lat="-26.2167" lon="-51.0833" name="Uniao da Vitoria" country="Brazil" cc="BR" sponsor="Toque telecom" id="7121"  url2="http://speedtest2.toquefibra.com.br/speedtest/upload.php" host="speedtest.toquefibra.com.br:8080" />
<server url="http://ooklaspeedtest.wbtinternet.com.br/speedtest/upload.php" lat="-26.2500" lon="-49.3836" name="Sao Bento do Sul" country="Brazil" cc="BR" sponsor="WBT Internet Ltda" id="14775"  host="ooklaspeedtest.wbtinternet.com.br:8080" />
<server url="http://speedtest.nettri.com.br/speedtest/upload.php" lat="-26.2516" lon="-53.6335" name="Barracão" country="Brazil" cc="BR" sponsor="Net Tri Telecom" id="16029"  host="speedtest.nettri.com.br:8080" />
<server url="http://speedtest.temais.com.br/speedtest/upload.php" lat="-26.2516" lon="-53.6335" name="Barracao" country="Brazil" cc="BR" sponsor="Temais Telecom" id="9078"  url2="http://speedtest2.temais.com.br/speedtest/upload.php" host="speedtest.temais.com.br:8080" />
<server url="http://velocidade1.otinternet.com.br/speedtest/upload.php" lat="-26.3044" lon="-48.8464" name="Joinville" country="Brazil" cc="BR" sponsor="otinternet" id="12716"  host="velocidade1.otinternet.com.br:8080" />
<server url="http://speedtest.simfibra.com.br/speedtest/upload.php" lat="-26.3044" lon="-48.8464" name="Joinville" country="BR" cc="XX" sponsor="Rede Sim Internet" id="16750"  host="speedtest.simfibra.com.br:8080" />
<server url="http://speed.empirehost.com.br/speedtest/upload.php" lat="-26.4000" lon="-52.7667" name="Sao Lourenco do Oeste" country="Brazil" cc="BR" sponsor="Empire Host" id="5997"  url2="http://speedtest.empirehost.com.br/speedtest/upload.php" host="speed.empirehost.com.br:8080" />
<server url="http://speedtest.gnettelecom.com.br/upload.php" lat="-26.4833" lon="-49.0667" name="Jaragua do Sul" country="Brazil" cc="BR" sponsor="NAXI" id="6654"  url2="http://speedtest.gnettelecom.com.br/upload.jsp" host="speedtest.gnettelecom.com.br:8080" />
<server url="http://speedtest.megasurf.co.za/speedtest/upload.php" lat="-26.7034" lon="27.8077" name="Vanderbijlpark" country="South Africa" cc="ZA" sponsor="Megasurf" id="12069"  host="speedtest.megasurf.co.za:8080" />
<server url="http://speedteste.microfap.net.br/server1/speedtest/upload.php" lat="-26.7194" lon="-48.9299" name="Luiz Alves" country="Brazil" cc="BR" sponsor="MICROFAP LTDA ME" id="5608"  url2="http://speedteste.microfap.net.br/server2/speedtest/upload.php" host="speedteste.microfap.net.br:8080" />
<server url="http://medidor.mkanet.com.br/speedtest/upload.php" lat="-26.7308" lon="-53.5153" name="Sao Miguel do Oeste" country="Brazil" cc="BR" sponsor="MKANET Telecom" id="5355"  url2="http://speedtest.mkanet.com.br/speedtest/upload.php" host="medidor.mkanet.com.br:8080" />
<server url="http://mvh-sp01.mhnet.com.br/legacy/upload.php" lat="-26.7650" lon="-53.1745" name="Maravilha" country="Brazil" cc="BR" sponsor="MHNET Telecom" id="11245"  host="mvh-sp01.mhnet.com.br:8080" />
<server url="http://speedtest.scnet.com.br/sp1/upload.php" lat="-26.7650" lon="-53.1745" name="Maravilha" country="Brazil" cc="BR" sponsor="SCNet" id="9435"  url2="http://speedtest.scnet.com.br/sp2/upload.php" host="speedtest.scnet.com.br:8080" />
<server url="http://st1tuc.personal.com.ar/speedtest/upload.php" lat="-26.8167" lon="-65.2167" name="San Miguel de Tucuman" country="Argentina" cc="AR" sponsor="Telecom Personal" id="10316"  url2="http://st2tuc.personal.com.ar/speedtest/upload.php" host="st1tuc.personal.com.ar:8080" />
<server url="http://st1tmn.telecom.com.ar/speedtest/upload.php" lat="-26.8167" lon="-65.2167" name="Tucuman" country="AR" cc="AR" sponsor="Telecom Argentina" id="17538"  host="st1tmn.telecom.com.ar:8080" />
<server url="http://speedtest2.redeunifique.com.br/upload.php" lat="-26.8228" lon="-49.2719" name="Timbo" country="Brazil" cc="BR" sponsor="Unifique Telecomunicacoes" id="6520"  url2="http://speedtest2.unifique.com.br/upload.php" host="speedtest2.redeunifique.com.br:8080" />
<server url="http://speedtest01.tbonet.net.br/speedtest/upload.php" lat="-26.8228" lon="-49.2719" name="Timbo" country="Brazil" cc="BR" sponsor="TboNet" id="11623"  host="speedtest01.tbonet.net.br:8080" />
<server url="http://speedtest2.barzotto.com.br/speedtest/upload.php" lat="-26.8761" lon="-50.7209" name="Lebon Regis" country="Brazil" cc="BR" sponsor="Plugnet Informática Ltda" id="14857"  host="speedtest.barzotto.com.br:8080" />
<server url="http://sp1.p4telecom.com.br/speedtest/upload.php" lat="-26.8769" lon="-52.4039" name="Xanxere" country="Brazil" cc="BR" sponsor="P4 Telecom" id="9961"  url2="http://sp2.p4telecom.com.br/speedtest/upload.php" host="sp1.p4telecom.com.br:8080" />
<server url="http://speedtestpzo.scnet.com.br/sp1/upload.php" lat="-26.8927" lon="-52.9082" name="Pinhalzinho" country="Brazil" cc="BR" sponsor="SCNet" id="13204"  host="speedtestpzo.scnet.com.br:8080" />
<server url="http://speedtestcp.scnet.com.br/sp1/upload.php" lat="-26.8945" lon="-53.1713" name="Cunha Porã" country="Brazil" cc="BR" sponsor="SCNet" id="13205"  host="speedtestcp.scnet.com.br:8080" />
<server url="http://speedtest.sninternet.com.br/speedtest/upload.php" lat="-26.8948" lon="-48.6551" name="Navegantes" country="Brazil" cc="BR" sponsor="SN Internet" id="15507"  host="speedtest.sninternet.com.br:8080" />
<server url="http://sp1.gmaestelecom.com.br/speedtest/upload.php" lat="-26.9000" lon="-48.6667" name="Itajai" country="Brazil" cc="BR" sponsor="Gmaes Telecom" id="6723"  url2="http://sp2.gmaestelecom.com.br/speedtest/upload.php" host="sp1.gmaestelecom.com.br:8080" />
<server url="http://speedtest.consultortik.com.br/ookla2/upload.php" lat="-26.9341" lon="-48.9539" name="Gaspar" country="BR" cc="XX" sponsor="Brick" id="16689"  host="speedtest.consultortik.com.br:8080" />
<server url="http://speedtest.redel.com.br/upload.php" lat="-26.9953" lon="-48.6356" name="Balneario Camboriu" country="Brazil" cc="BR" sponsor="Redel Internet" id="7835"  url2="http://ookla.redel.com.br/upload.php" host="speedtest.redel.com.br:8080" />
<server url="http://ns2.deltaativa.com.br/speedtest/upload.php" lat="-26.9953" lon="-48.6356" name="Balneario Camboriu" country="Brazil" cc="BR" sponsor="Delta Ativa Telecom" id="7081"  url2="http://ns4.deltaativa.com.br/speedtest/upload.php" host="ns2.deltaativa.com.br:8080" />
